0,Address,Census Tract,PM2.5,Poverty,Traffic,Noise Pollution,Minimum Price,Minimum Beds,Minimum Baths,Sqft,Units,Latitude,Longitude,Distance to School,Distance to Hospital,Distance to Grocery Store,City,Home Type,SoundScore
1,"1370 University Ave, Berkeley, CA",6001423100,9.128027341,24.2,932.2571034,36,3253,1,1,443,3,37.86991,-122.28474,0.437445184,0.897881095,0.039767744,Berkeley,MULTIUNIT,64
2,"3015 San Pablo Ave, Berkeley, CA",6001424002,9.303578087,20.5,873.049345,32,2595,1,1,450,10,37.851654,-122.286095,0.26097582,0.493989945,0.337404453,Berkeley,MULTIUNIT,68
3,"1260 Hopkins St, Berkeley, CA",6001421900,9.084806909,14.5,556.97488,29,2295,1,1,500,4,37.877346,-122.28903,0.15534275,1.134002075,0.282723805,Berkeley,MULTIUNIT,71
4,"1300 Delaware St, Berkeley, CA 94702",6001422200,9.084806909,21.6,764.1546687,30,2295,1,1,500,1,37.872322,-122.28671,0.221829447,1.1806049,0.322491549,Berkeley,APARTMENT,70
5,"1122 University Ave, Berkeley, CA",6001423100,9.128027341,24.2,932.2571034,38,2597,0,1,425,24,37.868923,-122.290886,0.181440332,1.362666603,0.275267353,Berkeley,MULTIUNIT,62
6,"2435 San Pablo Ave, Berkeley, CA",6001423100,9.128027341,24.2,932.2571034,34,1400,0,1,174,38,37.861523,-122.28934,0.404512521,0.848171415,0.633177049,Berkeley,MULTIUNIT,66
7,"2696 Sacramento St 2696, Berkeley, CA 94702",6001423300,9.145700959,24.1,909.3878523,31,1895,0,1,400,1,37.85894,-122.28049,0.455464943,0.474106073,0.628827452,Berkeley,APARTMENT,69
8,"1654 San Pablo Ave APT D, Berkeley, CA 94702",6001422100,9.090429362,20.6,637.3234915,36,2550,1,1,650,1,37.873627,-122.294,0.123031458,1.039553683,0.108739925,Berkeley,APARTMENT,64
9,"1420 Neilson St A, Berkeley, CA 94702",6001421900,9.084806909,14.5,556.97488,28,2195,1,1,650,1,37.87874,-122.2904,0.341132679,1.171905706,0.468513734,Berkeley,APARTMENT,72
10,"1800 Sacramento St B, Berkeley, CA 94702",6001422200,9.084806909,21.6,764.1546687,32,3950,2,1,1004,1,37.87284,-122.28248,0.496475429,0.920871822,0.326219775,Berkeley,APARTMENT,68
11,"1132 Parker St D, Berkeley, CA 94702",6001423300,9.145700959,24.1,909.3878523,29,2200,1,1,650,1,37.859337,-122.28737,0.153478637,0.257868965,0.365987519,Berkeley,APARTMENT,71
12,"2924 Mabel St APT E, Berkeley, CA 94702",6001423300,9.145700959,24.1,909.3878523,31,2450,2,1,730,1,37.853127,-122.28414,0.123031458,0.39767744,0.461678653,Berkeley,APARTMENT,69
13,"1385 Neilson St 1385, Berkeley, CA 94702",6001421900,9.084806909,14.5,556.97488,28,4350,3,1,952,1,37.878944,-122.28985,0.363502035,1.194275062,0.490261719,Berkeley,APARTMENT,72
14,"3135 Mabel St, Berkeley, CA 94702",6001424002,9.303578087,20.5,873.049345,26,4295,3,2,1050,1,37.84989,-122.282646,0.324355662,0.494611316,0.299500822,Berkeley,SINGLE_FAMILY,74
15,"2122 Sacramento St A, Berkeley, CA 94702",6001423100,9.128027341,24.2,932.2571034,32,3600,2,1,950,1,37.868458,-122.28227,0.329948001,1.032718602,0.415697199,Berkeley,APARTMENT,68
16,"2235 Bonar St, Berkeley, CA",6001423100,9.128027341,24.2,932.2571034,29,2995,2,1,900,2,37.86562,-122.28636,0.067729439,0.772364153,0.476591557,Berkeley,MULTIUNIT,71
17,"1342 Ordway St, Berkeley, CA 94702",6001421900,9.084806909,14.5,556.97488,30,3900,2,1,800,1,37.87922,-122.2876,0.055302019,1.042660538,0.210023398,Berkeley,APARTMENT,70
18,"1243 Allston Way, Berkeley, CA 94702",6001423100,9.128027341,24.2,932.2571034,29,2399,1,1,550,1,37.86715,-122.28715,0.178954848,0.883589562,0.365366148,Berkeley,TOWNHOUSE,71
19,"1246 Hearst Ave 4, Berkeley, CA 94702",6001422200,9.084806909,21.6,764.1546687,32,2710,2,1,908,1,37.870613,-122.28881,0.328083888,1.251441194,0.472863331,Berkeley,APARTMENT,68
20,"1428 Delaware St 2, Berkeley, CA 94702",6001422200,9.084806909,21.6,764.1546687,31,2850,1,1,550,1,37.872692,-122.28319,0.430610103,0.98176618,0.423153651,Berkeley,SINGLE_FAMILY,69
21,"1919 Curtis St APT 8, Berkeley, CA 94702",6001422200,9.084806909,21.6,764.1546687,33,2145,2,1,725,1,37.8701,-122.28932,0.192003639,1.212294821,0.454843572,Berkeley,APARTMENT,67
22,"1277 Hearst Ave APT 3, Berkeley, CA 94702",6001422200,9.084806909,21.6,764.1546687,30,2295,2,1,700,1,37.87153,-122.28739,0.429367361,1.134623446,0.276510095,Berkeley,APARTMENT,70
23,"1180 University Ave APT 2, Berkeley, CA 94702",6001423100,9.128027341,24.2,932.2571034,34,1995,1,1,560,1,37.869053,-122.28993,0.105011699,1.28623797,0.256626223,Berkeley,APARTMENT,66
24,"1269 Alcatraz Ave APT B, Berkeley, CA 94702",6001424002,9.303578087,20.5,873.049345,29,2350,1,1,550,1,37.8476,-122.281975,0.160935089,0.334297598,0.531272205,Berkeley,APARTMENT,71
25,"1219 Parker St A, Berkeley, CA 94702",6001423300,9.145700959,24.1,909.3878523,27,2850,2,1,700,1,37.860016,-122.286156,0.22990727,0.404512521,0.548049222,Berkeley,APARTMENT,73
26,"1321 Addison St APT E, Berkeley, CA 94702",6001423100,9.128027341,24.2,932.2571034,33,2995,2,1,750,1,37.869244,-122.28546,0.271539127,1.002271423,0.147886298,Berkeley,APARTMENT,67
27,"1218 Haskell St A, Berkeley, CA 94702",6001424002,9.303578087,20.5,873.049345,29,2800,2,1,850,1,37.850464,-122.28509,0.351695986,0.615778661,0.428124619,Berkeley,APARTMENT,71
28,"1251 Burnett St, Berkeley, CA 94702",6001423300,9.145700959,24.1,909.3878523,28,2200,1,1,430,1,37.853657,-122.284645,0.128623797,0.403269779,0.406998005,Berkeley,SINGLE_FAMILY,72
29,"1100 Francisco St, Berkeley, CA 94702",6001422200,9.084806909,21.6,764.1546687,33,2195,1,1,650,1,37.872486,-122.29271,0.137322991,1.113496832,0.073321778,Berkeley,APARTMENT,67
30,"2770 Dohr St B, Berkeley, CA 94702",6001423300,9.145700959,24.1,909.3878523,27,2385,1,1,600,1,37.856106,-122.28161,0.121788716,0.469135105,0.270917756,Berkeley,APARTMENT,73
31,"1219 Parker St APT B, Berkeley, CA 94702",6001423300,9.145700959,24.1,909.3878523,27,2150,1,1,600,1,37.86002,-122.28616,0.22990727,0.404512521,0.548049222,Berkeley,APARTMENT,73
32,"1402 Acton Cres, Berkeley, CA 94702",6001423100,9.128027341,24.2,932.2571034,29,2275,1,1,450,1,37.867706,-122.2839,0.096312505,1.040796425,0.182683074,Berkeley,APARTMENT,71
33,"1316 Ashby Ave APT C, Berkeley, CA 94702",6001424002,9.303578087,20.5,873.049345,29,2200,2,1,600,1,37.852642,-122.28296,0.231150012,0.619506887,0.392706472,Berkeley,APARTMENT,71
34,"1215 Blake St D, Berkeley, CA 94702",6001423300,9.145700959,24.1,909.3878523,29,2600,2,1,800,1,37.860886,-122.28637,0.170255654,0.468513734,0.581603256,Berkeley,APARTMENT,71
35,"3210 Sacramento St, Berkeley, CA 94702",6001424002,9.303578087,20.5,873.049345,30,4600,3,1,1090,1,37.849106,-122.27836,0.631312936,0.067729439,0.262839933,Berkeley,SINGLE_FAMILY,70
36,"1138 Addison St APT 1, Berkeley, CA 94702",6001423100,9.128027341,24.2,932.2571034,32,3100,3,1,850,1,37.86819,-122.28974,0.019262501,1.245848855,0.330569372,Berkeley,APARTMENT,68
37,"1245 Francisco St D, Berkeley, CA 94702",6001422200,9.084806909,21.6,764.1546687,29,1700,0,1,200,1,37.873466,-122.28807,0.218101221,1.36080249,0.456086314,Berkeley,APARTMENT,71
38,"1154 Francisco St, Berkeley, CA 94702",6001422200,9.084806909,21.6,764.1546687,29,2400,2,1,650,1,37.872665,-122.2906,0.060272987,1.454629511,0.178333477,Berkeley,APARTMENT,71
39,"1314 Ashby Ave, Berkeley, CA 94702",6001424002,9.303578087,20.5,873.049345,29,4400,4,2,1400,1,37.852642,-122.28295,0.230528641,0.620128258,0.392085101,Berkeley,SINGLE_FAMILY,71
40,"2169 Acton St, Berkeley, CA 94702",6001423100,9.128027341,24.2,932.2571034,29,2275,1,1,450,1,37.86763,-122.28367,0.108118554,1.052602474,0.194489123,Berkeley,APARTMENT,71
41,"1257 Francisco St APT 1, Berkeley, CA 94702",6001422200,9.084806909,21.6,764.1546687,31,4000,3,2,1000,1,37.873753,-122.28724,0.170255654,1.256412162,0.398298811,Berkeley,APARTMENT,69
42,"2853 Sacramento St, Berkeley, CA 94702",6001423400,9.145700959,26.1,742.2529583,29,4795,3,2,1220,1,37.855644,-122.27922,0.239227835,0.684129471,0.200081462,Berkeley,SINGLE_FAMILY,71
43,"1321 Addison St H, Berkeley, CA 94702",6001423100,9.128027341,24.2,932.2571034,33,2895,2,1,750,1,37.869247,-122.28548,0.271539127,1.003514165,0.14912904,Berkeley,APARTMENT,67
44,"2223 Bonar St APT C, Berkeley, CA 94702",6001423100,9.128027341,24.2,932.2571034,28,2450,3,1,850,1,37.866096,-122.28647,0.100662102,0.805296816,0.443037523,Berkeley,APARTMENT,72
45,"1923 Curtis St, Berkeley, CA 94702",6001422200,9.084806909,21.6,764.1546687,35,2750,2,1,700,1,37.869953,-122.28929,0.193867752,1.214158934,0.485290751,Berkeley,APARTMENT,65
46,"2112 Curtis St, Berkeley, CA 94702",6001423100,9.128027341,24.2,932.2571034,31,2050,1,1,470,1,37.868015,-122.289566,0.072079036,1.19303232,0.338647195,Berkeley,APARTMENT,69
47,"1212 Francisco St, Berkeley, CA 94702",6001422200,9.084806909,21.6,764.1546687,29,2795,2,1,900,1,37.872837,-122.289246,0.134837507,1.451522656,0.385871391,Berkeley,SINGLE_FAMILY,71
48,"2521 San Pablo Ave APT D, Berkeley, CA 94702",6001423300,9.145700959,24.1,909.3878523,34,3000,3,1,860,1,37.86075,-122.289116,0.193246381,0.647468582,0.47224196,Berkeley,APARTMENT,66
49,"2921 Acton St B, Berkeley, CA 94702",6001423300,9.145700959,24.1,909.3878523,29,1975,0,1,400,1,37.853767,-122.28132,0.101904844,0.523194382,0.263461304,Berkeley,APARTMENT,71
50,"1944 Curtis St APT 2, Berkeley, CA 94702",6001422200,9.084806909,21.6,764.1546687,33,1699,0,1,450,1,37.870228,-122.289894,0.203188317,1.223479499,0.443037523,Berkeley,APARTMENT,67
51,"1340 Addison St, Berkeley, CA 94702",6001423100,9.128027341,24.2,932.2571034,31,2500,2,1,600,1,37.86886,-122.284424,0.073943149,0.955047227,0.096312505,Berkeley,APARTMENT,69
52,"1728 Curtis St APT C, Berkeley, CA 94702",6001422200,9.084806909,21.6,764.1546687,29,2399,2,1,685,1,37.87282,-122.29017,0.085127827,1.429774671,0.203188317,Berkeley,APARTMENT,71
53,"1420 Alcatraz Ave, Berkeley, CA 94702",6001424002,9.303578087,20.5,873.049345,30,3595,3,1,1150,1,37.84757,-122.2785,0.347346389,0.165906057,0.344239534,Berkeley,TOWNHOUSE,70
54,"1305 66th St, Berkeley, CA 94702",6001424002,9.303578087,20.5,873.049345,26,2200,1,1,514,1,37.84971,-122.2825,0.312549613,0.382764536,0.343618163,Berkeley,MULTI_FAMILY,74
55,"1931 San Pablo Ave UNIT 105, Berkeley, CA 94702",6001422200,9.084806909,21.6,764.1546687,35,1595,0,1,550,1,37.869965,-122.291664,0.369715745,1.27381055,0.142293959,Berkeley,APARTMENT,65
56,"1246 Ashby Ave APT 4, Berkeley, CA 94702",6001424002,9.303578087,20.5,873.049345,30,2295,2,1,741,1,37.852356,-122.284424,0.19883872,0.537485915,0.474727444,Berkeley,APARTMENT,70
57,"1321 Alcatraz Ave B, Berkeley, CA 94702",6001424002,9.303578087,20.5,873.049345,28,3100,3,1,1256,1,37.84783,-122.280426,0.246684287,0.2485484,0.444901636,Berkeley,TOWNHOUSE,72
58,"3101 Mabel St, Berkeley, CA 94702",6001424002,9.303578087,20.5,873.049345,27,3050,2,1,650,1,37.85087,-122.283,0.290180257,0.487776235,0.292665741,Berkeley,APARTMENT,73
59,"1598 University Ave, Berkeley, CA",6001423000,9.170834519,21.9,836.1608147,33,2095,0,1,406,43,37.870388,-122.27995,0.048466938,0.639390759,0.060894358,Berkeley,MULTIUNIT,67
60,"1698 University Ave, Berkeley, CA",6001423000,9.170834519,21.9,836.1608147,35,1100,1,1,90,3,37.87066,-122.27775,0.013048791,0.51573793,0.187032671,Berkeley,MULTIUNIT,65
61,"1812 University Ave, Berkeley, CA",6001423000,9.170834519,21.9,836.1608147,36,2395,0,1,420,10,37.871193,-122.27465,0.617021403,0.340511308,0.101904844,Berkeley,MULTIUNIT,64
62,"1717 University Ave, Berkeley, CA",6001422300,9.049984366,25.3,738.8329926,35,1149,2,1,73,41,37.871193,-122.276985,0.062758471,0.538728657,0.193246381,Berkeley,MULTIUNIT,65
63,"1947 Oregon St 3, Berkeley, CA 94703",6001423500,9.234587905,38.6,605.423531,31,2795,2,1,720,1,37.85753,-122.26935,0.126138313,0.69593552,0.210023398,Berkeley,APARTMENT,69
64,"2091 California St, Berkeley, CA",6001423000,9.170834519,21.9,836.1608147,31,1895,0,1,370,5,37.86994,-122.27942,0.111225409,0.702770601,0.123652829,Berkeley,MULTIUNIT,69
65,"2139 Grant St, Berkeley, CA",6001423000,9.170834519,21.9,836.1608147,31,2195,0,1,400,2,37.86907,-122.2747,0.145400814,0.531272205,0.292665741,Berkeley,MULTIUNIT,69
66,"1835 Delaware St, Berkeley, CA",6001422300,9.049984366,25.3,738.8329926,34,2150,1,1,450,4,37.874386,-122.273926,0.07456452,0.467270992,0.208780656,Berkeley,MULTIUNIT,66
67,"3228 Adeline St, Berkeley, CA",6001424001,9.303578087,36.9,1005.646116,38,1220,1,1,115,16,37.850033,-122.27137,0.116196377,0.264704046,0.123652829,Berkeley,MULTIUNIT,62
68,"1634 Julia St, Berkeley, CA 94703",6001423400,9.145700959,26.1,742.2529583,30,2150,0,1,225,1,37.854374,-122.27556,0.120545974,0.667352454,0.240470577,Berkeley,APARTMENT,70
69,"2706 Martin Luther King Jr Way UNIT A, Berkeley, CA 94703",6001423400,9.145700959,26.1,742.2529583,33,4360,3,2,1100,1,37.8595,-122.271996,0.089477424,0.521330269,0.009320565,Berkeley,APARTMENT,67
70,"1836 Francisco St A, Berkeley, CA 94703",6001422300,9.049984366,25.3,738.8329926,34,2990,1,1,650,1,37.87477,-122.27394,0.050331051,0.530650834,0.272781869,Berkeley,APARTMENT,66
71,"1538 Prince St A, Berkeley, CA 94703",6001424001,9.303578087,36.9,1005.646116,29,3100,2,1,1200,1,37.851456,-122.27687,0.203809688,0.328705259,0.096312505,Berkeley,APARTMENT,71
72,"1321 Josephine St A, Berkeley, CA 94703",6001421800,9.049984366,13.5,288.7259092,32,1895,0,1,450,1,37.882343,-122.27503,0.155964121,0.909687144,0.152857266,Berkeley,APARTMENT,68
73,"2959A California St, Berkeley, CA 94703",6001422300,9.049984366,25.3,738.8329926,29,2131,0,1,320,1,37.8738,-122.28014,0.82020972,0.841957705,0.816481494,Berkeley,SINGLE_FAMILY,71
74,"1612 Parker St, Berkeley, CA 94703",6001423400,9.145700959,26.1,742.2529583,26,3250,2,1,1200,1,37.86057,-122.27773,0.2485484,0.703391972,0.630070194,Berkeley,APARTMENT,74
75,"1817 Carleton St, Berkeley, CA 94703",6001423400,9.145700959,26.1,742.2529583,30,9000,3,3,2000,1,37.860752,-122.27297,0.164041944,0.502689139,0.131109281,Berkeley,SINGLE_FAMILY,70
76,"1814 Blake St APT 2, Berkeley, CA 94703",6001423400,9.145700959,26.1,742.2529583,30,2250,1,1,525,1,37.862118,-122.27327,0.188275413,0.387114133,0.322491549,Berkeley,APARTMENT,70
77,"1639 Josephine St ROOM 2, Berkeley, CA 94703",6001422300,9.049984366,25.3,738.8329926,31,1000,0,1,145,1,37.876442,-122.27437,0.247927029,0.893531498,0.380279052,Berkeley,APARTMENT,69
78,"1628 Tyler St, Berkeley, CA 94703",6001424001,9.303578087,36.9,1005.646116,29,4300,3,2,1100,1,37.852577,-122.2753,0.09320565,0.664245599,0.264082675,Berkeley,APARTMENT,71
79,"1835 Carleton St, Berkeley, CA 94703",6001423400,9.145700959,26.1,742.2529583,33,3500,3,1,1050,1,37.86075,-122.27214,0.119303232,0.457950427,0.08699194,Berkeley,APARTMENT,67
80,"3380 Adeline St 3, Berkeley, CA 94703",6001424001,9.303578087,36.9,1005.646116,38,2495,2,1,625,1,37.847088,-122.272644,0.132973394,0.625720597,0.357288325,Berkeley,APARTMENT,62
81,"2233 Grant St 21, Berkeley, CA 94703",6001423000,9.170834519,21.9,836.1608147,32,2350,1,1,660,1,37.86736,-122.2745,0.022990727,0.656167776,0.406998005,Berkeley,APARTMENT,68
82,"1623 Alcatraz Ave, Berkeley, CA",6001424001,9.303578087,36.9,1005.646116,30,2275,1,1,500,2,37.84859,-122.27468,0.147264927,0.298879451,0.338647195,Berkeley,MULTIUNIT,70
83,"1323 Josephine St A, Berkeley, CA 94703",6001421800,9.049984366,13.5,288.7259092,32,3145,2,1,850,1,37.882236,-122.27502,0.148507669,1.063165781,0.145400814,Berkeley,APARTMENT,68
84,"1590 Oregon St, Berkeley, CA",6001423400,9.145700959,26.1,742.2529583,28,2895,3,1,735,2,37.855976,-122.27763,0.078292746,0.861220206,0.157206863,Berkeley,MULTIUNIT,72
85,"1725 Berkeley Way, Berkeley, CA 94703",6001422300,9.049984366,25.3,738.8329926,32,5000,3,3,600,1,37.872265,-122.276566,0.16155646,0.636905275,0.398298811,Berkeley,APARTMENT,68
86,"1811 Francisco St APT 6, Berkeley, CA 94703",6001422300,9.049984366,25.3,738.8329926,30,4395,3,2,740,1,37.875153,-122.275154,0.11184678,0.592166563,0.333676227,Berkeley,APARTMENT,70
87,"3140 Ellis St APT 3, Berkeley, CA 94703",6001424001,9.303578087,36.9,1005.646116,32,2695,2,1,785,1,37.850555,-122.27317,0.182061703,0.299500822,0.123652829,Berkeley,APARTMENT,68
88,"2930 California St, Berkeley, CA 94703",6001423400,9.145700959,26.1,742.2529583,29,4000,3,1,909,1,37.854553,-122.27734,0.047845567,0.756208507,0.244198803,Berkeley,SINGLE_FAMILY,71
89,"1816 Fairview St, Berkeley, CA 94703",6001424001,9.303578087,36.9,1005.646116,36,2450,2,1,860,1,37.85025,-122.272,0.232392754,0.23612098,0.060272987,Berkeley,APARTMENT,64
90,"2012 Stuart St D, Berkeley, CA 94703",6001423500,9.234587905,38.6,605.423531,34,2658,2,1,720,1,37.858013,-122.26876,0.098797989,0.376550826,0.21126614,Berkeley,APARTMENT,66
91,"2124 Spaulding Ave, Berkeley, CA 94703",6001423000,9.170834519,21.9,836.1608147,29,6500,3,2,1600,1,37.868595,-122.281075,0.384628649,0.82642343,0.247927029,Berkeley,SINGLE_FAMILY,71
92,"2009 McGee Ave APT 2, Berkeley, CA 94703",6001423000,9.170834519,21.9,836.1608147,34,1999,1,1,568,1,37.87056,-122.27718,0.049088309,0.525058495,0.196353236,Berkeley,APARTMENT,66
93,"1632 Prince St APT B, Berkeley, CA 94703",6001424001,9.303578087,36.9,1005.646116,30,2500,2,1,750,1,37.851704,-122.27491,0.098176618,0.46602825,0.210023398,Berkeley,APARTMENT,70
94,"1430 Josephine St R4, Berkeley, CA 94703",6001421800,9.049984366,13.5,288.7259092,28,2750,2,1,650,1,37.880062,-122.275444,0.169634283,1.148293608,0.166527428,Berkeley,APARTMENT,72
95,"1738 Alcatraz Ave UNIT 2, Berkeley, CA 94703",6001424001,9.303578087,36.9,1005.646116,36,2195,2,1,646,1,37.848343,-122.27231,0.061515729,0.424396393,0.253519368,Berkeley,APARTMENT,64
96,"1627 Parker St, Berkeley, CA 94703",6001423400,9.145700959,26.1,742.2529583,26,6000,3,2,1630,1,37.861168,-122.2772,0.139187104,0.668595196,0.66486697,Berkeley,SINGLE_FAMILY,74
97,"1509 Hearst Ave 102, Berkeley, CA 94703",6001422300,9.049984366,25.3,738.8329926,29,3295,2,1,828,1,37.872467,-122.28175,0.250412513,0.841336334,0.246062916,Berkeley,APARTMENT,71
98,"3140 Ellis St APT 9, Berkeley, CA 94703",6001424001,9.303578087,36.9,1005.646116,32,2695,3,1,780,1,37.850548,-122.273155,0.181440332,0.298879451,0.123031458,Berkeley,APARTMENT,68
99,"1626 Francisco St APT 3A, Berkeley, CA 94703",6001422300,9.049984366,25.3,738.8329926,28,3495,3,2,1060,1,37.874123,-122.278915,1.015941585,0.805918187,0.260354449,Berkeley,APARTMENT,72
100,"2825 Sacramento St 2813, Berkeley, CA 94703",6001423400,9.145700959,26.1,742.2529583,28,2300,1,1,750,1,37.856686,-122.27949,0.297015338,0.610807693,0.252276626,Berkeley,APARTMENT,72
101,"1643 Prince St 5, Berkeley, CA 94703",6001424001,9.303578087,36.9,1005.646116,32,1945,1,1,550,1,37.852283,-122.27469,0.105011699,0.47224196,0.241091948,Berkeley,APARTMENT,68
102,"1621 Blake St APT 5, Berkeley, CA 94703",6001423400,9.145700959,26.1,742.2529583,26,1745,1,1,675,1,37.862003,-122.277664,0.216858479,0.625099226,0.587816966,Berkeley,APARTMENT,74
103,"2982 Otis St, Berkeley, CA 94703",6001423500,9.234587905,38.6,605.423531,34,3200,2,1,1000,1,37.85484,-122.270355,0.17398388,0.312549613,0.095691134,Berkeley,SINGLE_FAMILY,66
104,"1825 Berkeley Way, Berkeley, CA",6001422300,9.049984366,25.3,738.8329926,34,5200,3,2,950,2,37.872578,-122.27421,0.395813327,0.503931881,0.265325417,Berkeley,MULTIUNIT,66
105,"1735 Carleton St A, Berkeley, CA 94703",6001423400,9.145700959,26.1,742.2529583,29,2600,2,1,650,1,37.86058,-122.27431,0.071457665,0.577253659,0.205673801,Berkeley,APARTMENT,71
106,"1506 Russell St APT A, Berkeley, CA 94703",6001423400,9.145700959,26.1,742.2529583,29,2500,1,1,600,1,37.854755,-122.27885,0.107497183,0.503931881,0.113710893,Berkeley,APARTMENT,71
107,"1532 Woolsey St 2, Berkeley, CA 94703",6001424001,9.303578087,36.9,1005.646116,29,1850,0,1,320,1,37.850517,-122.27705,0.296393967,0.246684287,0.174605251,Berkeley,APARTMENT,71
108,"2911 California St, Berkeley, CA",6001423400,9.145700959,26.1,742.2529583,28,3495,3,1,856,2,37.854813,-122.27694,0.013670162,0.769257298,0.224314931,Berkeley,MULTIUNIT,72
109,"3102 Martin Luther King Jr Way 3102, Berkeley, CA 94703",6001424001,9.303578087,36.9,1005.646116,37,4550,4,1,1300,1,37.852325,-122.27116,0.307578645,0.252276626,0.147886298,Berkeley,APARTMENT,63
110,"1648 Russell St, Berkeley, CA 94703",6001423400,9.145700959,26.1,742.2529583,29,2200,0,1,500,1,37.85531,-122.274994,0.147886298,0.699042375,0.076428633,Berkeley,APARTMENT,71
111,"2245 McKinley Ave D, Berkeley, CA 94703",6001423000,9.170834519,21.9,836.1608147,34,2600,2,1,675,1,37.867107,-122.2735,0.123652829,0.600865757,0.368473003,Berkeley,APARTMENT,66
112,"1815 Addison St APT F, Berkeley, CA 94703",6001423000,9.170834519,21.9,836.1608147,34,2950,2,1,600,1,37.87066,-122.2745,0.255383481,0.475348815,0.23612098,Berkeley,APARTMENT,66
113,"1743 Berkeley Way C, Berkeley, CA 94703",6001422300,9.049984366,25.3,738.8329926,33,1950,1,1,700,1,37.872425,-122.27567,0.311928242,0.77050004,0.282102434,Berkeley,APARTMENT,67
114,"1801 University Ave, Berkeley, CA",6001422300,9.049984366,25.3,738.8329926,37,3000,2,1,600,2,37.87161,-122.275024,0.198217349,0.425017764,0.185789929,Berkeley,MULTIUNIT,63
115,"3411 Adeline St 4, Berkeley, CA 94703",6001424001,9.303578087,36.9,1005.646116,36,3950,3,2,1000,1,37.846424,-122.27205,0.119924603,0.462921395,0.343618163,Berkeley,APARTMENT,64
116,"2030 Ashby Ave 11, Berkeley, CA 94703",6001423901,9.254948457,27,1032.650686,36,1650,0,1,450,1,37.854904,-122.26756,0.277752837,0.363502035,0.259733078,Berkeley,APARTMENT,64
117,"1540 Prince St, Berkeley, CA",6001424001,9.303578087,36.9,1005.646116,29,1950,1,1,700,2,37.85146,-122.276886,0.214994366,0.328083888,0.095069763,Berkeley,MULTIUNIT,71
118,"1611 62nd St B, Berkeley, CA 94703",6001424001,9.303578087,36.9,1005.646116,29,2845,2,1,733,1,37.84669,-122.27502,0.253519368,0.343618163,0.52195164,Berkeley,APARTMENT,71
119,"2909 Adeline St, Berkeley, CA 94703",6001423500,9.234587905,38.6,605.423531,35,3000,2,1,800,1,37.856194,-122.268105,0.125516942,0.438687926,0.108118554,Berkeley,APARTMENT,65
120,"1635 Prince St A, Berkeley, CA 94703",6001424001,9.303578087,36.9,1005.646116,30,2475,2,1,1200,1,37.852238,-122.27507,0.104390328,0.471620589,0.240470577,Berkeley,APARTMENT,70
121,"1511 Stuart St, Berkeley, CA 94703",6001423400,9.145700959,26.1,742.2529583,28,2500,2,1,728,1,37.85725,-122.27936,0.572282691,0.614535919,0.280238321,Berkeley,APARTMENT,72
122,"1839 Berkeley Way A, Berkeley, CA 94703",6001422300,9.049984366,25.3,738.8329926,35,2600,1,2,672,1,37.872646,-122.27367,0.106254441,0.346725018,0.088234682,Berkeley,APARTMENT,65
123,"1634 63rd St APT 3, Berkeley, CA 94703",6001424001,9.303578087,36.9,1005.646116,31,3200,3,2,1103,1,37.847195,-122.27406,0.257868965,0.455464943,0.38525002,Berkeley,APARTMENT,69
124,"1509 Derby St 1511, Berkeley, CA 94703",6001423400,9.145700959,26.1,742.2529583,30,3200,2,2,1000,1,37.859047,-122.27968,0.402648408,0.491504461,0.62758471,Berkeley,APARTMENT,70
125,"1953 Ashby Ave APT F, Berkeley, CA 94703",6001423500,9.234587905,38.6,605.423531,35,1895,1,1,550,1,37.85466,-122.27021,0.160935089,0.299500822,0.082642343,Berkeley,APARTMENT,65
126,"1646 Prince St E, Berkeley, CA 94703",6001424001,9.303578087,36.9,1005.646116,32,4000,4,2,1400,1,37.85177,-122.27447,0.073943149,0.441794781,0.336783082,Berkeley,APARTMENT,68
127,"2076 Ashby Ave, Berkeley, CA",6001423901,9.254948457,27,1032.650686,38,2097,1,1,850,2,37.85498,-122.26705,0.047845567,0.514495188,0.288316144,Berkeley,MULTIUNIT,62
128,"2912 Newbury St, Berkeley, CA 94703",6001423500,9.234587905,38.6,605.423531,34,4495,3,2,1255,1,37.856018,-122.267784,0.029204437,0.499582284,0.168391541,Berkeley,APARTMENT,66
129,"1717 Blake St APT A, Berkeley, CA 94703",6001423400,9.145700959,26.1,742.2529583,28,3150,3,2,850,1,37.862286,-122.27553,0.220586705,0.507038736,0.354802841,Berkeley,APARTMENT,72
130,"2227 McGee Ave APT A, Berkeley, CA 94703",6001423000,9.170834519,21.9,836.1608147,30,3500,3,1,900,1,37.86722,-122.276764,0.108739925,0.763043588,0.434338329,Berkeley,APARTMENT,70
131,"1746 Allston Way, Berkeley, CA",6001423000,9.170834519,21.9,836.1608147,31,2600,1,1,475,4,37.86821,-122.27544,0.129866539,0.610186322,0.361016551,Berkeley,MULTIUNIT,69
132,"1735 Carleton St APT E, Berkeley, CA 94703",6001423400,9.145700959,26.1,742.2529583,29,3200,2,1,750,1,37.860577,-122.27429,0.072700407,0.576010917,0.204431059,Berkeley,APARTMENT,71
133,"1753 Berkeley Way, Berkeley, CA 94703",6001422300,9.049984366,25.3,738.8329926,33,2100,1,1,800,1,37.87242,-122.27566,0.311928242,0.771121411,0.282102434,Berkeley,APARTMENT,67
134,"1837 Berkeley Way B, Berkeley, CA 94703",6001422300,9.049984366,25.3,738.8329926,35,4800,3,3,920,1,37.872635,-122.27366,0.105011699,0.345482276,0.087613311,Berkeley,TOWNHOUSE,65
135,"1611 McGee Ave 5, Berkeley, CA 94703",6001422300,9.049984366,25.3,738.8329926,28,2295,1,1,525,1,37.8768,-122.277916,0.383385907,1.134623446,0.150371782,Berkeley,APARTMENT,72
136,"2237 Roosevelt Ave APT 4, Berkeley, CA 94703",6001423000,9.170834519,21.9,836.1608147,31,4000,3,1,900,1,37.867004,-122.2756,0.113089522,0.780441976,0.541835512,Berkeley,APARTMENT,69
137,"2917 Otis St, Berkeley, CA 94703",6001423500,9.234587905,38.6,605.423531,34,4950,3,2,1333,1,37.855717,-122.269844,0.387114133,0.370337116,0.154100008,Berkeley,SINGLE_FAMILY,66
138,"1625 Woolsey St APT 7, Berkeley, CA 94703",6001424001,9.303578087,36.9,1005.646116,30,2345,2,1,750,1,37.851295,-122.27522,0.185168558,0.357288325,0.247305658,Berkeley,APARTMENT,70
139,"1752 Vine St, Berkeley, CA 94703",6001421800,9.049984366,13.5,288.7259092,29,3400,3,1,1100,1,37.879013,-122.27673,0.182061703,0.971202873,0.303850419,Berkeley,SINGLE_FAMILY,71
140,"2925 Ellis St 11, Berkeley, CA 94703",6001423400,9.145700959,26.1,742.2529583,30,2725,2,1,700,1,37.85488,-122.27299,0.2485484,0.528786721,0.300122193,Berkeley,APARTMENT,70
141,"1826 Alcatraz Ave APT 10, Berkeley, CA 94703",6001423901,9.254948457,27,1032.650686,32,1735,1,1,600,1,37.84859,-122.27049,0.044117341,0.342996792,0.201945575,Berkeley,APARTMENT,68
142,"1611 62nd St A, Berkeley, CA 94703",6001424001,9.303578087,36.9,1005.646116,29,2645,2,1,684,1,37.846687,-122.275,0.252276626,0.344860905,0.474106073,Berkeley,APARTMENT,71
143,"1837 Parker St, Berkeley, CA 94703",6001423400,9.145700959,26.1,742.2529583,33,3500,3,2,900,1,37.861652,-122.27226,0.058408874,0.397056069,0.150371782,Berkeley,APARTMENT,67
144,"1633 62nd St, Berkeley, CA 94703",6001424001,9.303578087,36.9,1005.646116,32,7950,5,3,2650,1,37.846825,-122.27398,0.195731865,0.401405666,0.420046796,Berkeley,SINGLE_FAMILY,68
145,"1812 Francisco St, Berkeley, CA",6001422300,9.049984366,25.3,738.8329926,30,2300,1,1,650,3,37.874622,-122.27505,0.11184678,0.592166563,0.334297598,Berkeley,MULTIUNIT,70
146,"2431-33 & 2435 Grant St, Berkeley, CA",6001423000,9.170834519,21.9,836.1608147,32,2095,1,1,600,3,37.865784,-122.27467,0.192003639,0.725139957,0.663624228,Berkeley,MULTIUNIT,68
147,"1822 Francisco St, Berkeley, CA",6001422300,9.049984366,25.3,738.8329926,31,2150,1,1,550,2,37.87469,-122.27455,0.084506456,0.564826239,0.306335903,Berkeley,MULTIUNIT,69
148,"1822 Francisco St, Berkeley, CA 94703",6001422300,9.049984366,25.3,738.8329926,31,2150,1,1,550,1,37.874687,-122.27454,0.083885085,0.564204868,0.305714532,Berkeley,APARTMENT,69
149,"3244 Ellis St, Berkeley, CA",6001424001,9.303578087,36.9,1005.646116,32,2250,1,1,640,4,37.848755,-122.27286,0.04970968,0.420668167,0.220586705,Berkeley,MULTIUNIT,68
150,"1817 Allston Way, Berkeley, CA 94703",6001423000,9.170834519,21.9,836.1608147,32,2275,1,1,500,1,37.868805,-122.274284,0.153478637,0.525058495,0.286452031,Berkeley,SINGLE_FAMILY,68
151,"1826 Alcatraz Avenue 1 14-16-12, Berkeley, CA 94703",6001423000,9.170834519,21.9,836.1608147,32,1735,1,1,600,1,37.864147,-122.275566,0.392706472,0.684129471,0.631312936,Berkeley,APARTMENT,68
152,"1736 Parker St, Berkeley, CA 94703",6001423400,9.145700959,26.1,742.2529583,29,2200,2,1,700,1,37.860893,-122.27435,0.192003639,0.518223414,0.271539127,Berkeley,APARTMENT,71
153,"2120 Roosevelt Ave, Berkeley, CA",6001423000,9.170834519,21.9,836.1608147,31,2700,2,1,700,2,37.869312,-122.27653,0.210023398,0.572904062,0.334297598,Berkeley,MULTIUNIT,69
154,"1533 Harmon St, Berkeley, CA 94703",6001424001,9.303578087,36.9,1005.646116,28,2495,2,1,800,1,37.849274,-122.276596,0.305714532,0.129866539,0.308200016,Berkeley,APARTMENT,72
155,"1811 Oregon St, Berkeley, CA 94703",6001423400,9.145700959,26.1,742.2529583,31,3100,3,1,900,1,37.857197,-122.27246,0.234256867,0.610186322,0.164663315,Berkeley,APARTMENT,69
156,"1516 Prince St 1518A, Berkeley, CA 94703",6001424001,9.303578087,36.9,1005.646116,29,2375,1,1,700,1,37.85134,-122.277725,0.261597191,0.281481063,0.049088309,Berkeley,APARTMENT,71
157,"3302 California St, Berkeley, CA",6001424001,9.303578087,36.9,1005.646116,29,1575,0,1,300,2,37.847878,-122.27595,0.232392754,0.250412513,0.418804054,Berkeley,MULTIUNIT,71
158,"2228 McKinley Ave, Berkeley, CA",6001423000,9.170834519,21.9,836.1608147,32,1350,1,1,200,2,37.86748,-122.27406,0.129245168,0.579117772,0.339889937,Berkeley,MULTIUNIT,68
159,"1525 Ada St, Berkeley, CA 94703",6001421800,9.049984366,13.5,288.7259092,29,3800,2,1,700,1,37.880726,-122.28217,0.283966547,1.032718602,0.216858479,Berkeley,SINGLE_FAMILY,71
160,"1590 Oregon St 7, Berkeley, CA 94703",6001423400,9.145700959,26.1,742.2529583,28,2995,2,1,750,1,37.855984,-122.27765,0.078914117,0.862462948,0.157828234,Berkeley,APARTMENT,72
161,"2077 Haste St, Berkeley, CA",6001422900,9.170834519,59.6,371.7452012,40,3845,1,1,651,34,37.865105,-122.26789,0.050952422,0.092584279,0.439930668,Berkeley,MULTIUNIT,60
162,"2650 Telegraph Ave, Berkeley, CA",6001423602,9.189519339,65.8,242.091266,32,3095,0,1,414,20,37.861572,-122.25929,0.27340324,0.150371782,0.306335903,Berkeley,MULTIUNIT,68
163,"2526 Durant Ave, Berkeley, CA",6001422800,9.189519339,80,143.5907225,31,2200,0,1,383,5,37.86785,-122.25778,0.169012912,0.54059277,0.340511308,Berkeley,MULTIUNIT,69
164,"2627 Hillegass Ave 101W, Berkeley, CA 94704",6001423602,9.189519339,65.8,242.091266,28,4095,2,2,950,1,37.86239,-122.25584,0.234878238,0.287694773,0.193867752,Berkeley,APARTMENT,72
165,"2811 Channing Way, Berkeley, CA 94704",6001422700,9.032993512,68.3,20.92008492,27,3795,2,1,504,1,37.868176,-122.25123,0.407619376,0.929571016,0.518223414,Berkeley,APARTMENT,73
166,"2534 Benvenue Ave, Berkeley, CA",6001423602,9.189519339,65.8,242.091266,26,2250,1,1,548,2,37.864105,-122.255455,0.196353236,0.456086314,0.339268566,Berkeley,MULTIUNIT,74
167,"2118 Channing Way, Berkeley, CA",6001422900,9.170834519,59.6,371.7452012,35,3995,3,1,668,3,37.865658,-122.26644,0.157828234,0.200081462,0.236742351,Berkeley,MULTIUNIT,65
168,"2035 Channing Way, Berkeley, CA",6001422900,9.170834519,59.6,371.7452012,38,1995,1,1,342,4,37.865974,-122.26835,0.129245168,0.171498396,0.336161711,Berkeley,MULTIUNIT,62
169,"2423 Blake St, Berkeley, CA",6001423602,9.189519339,65.8,242.091266,31,4750,3,1,930,2,37.864334,-122.25952,0.196974607,0.320627436,0.08699194,Berkeley,MULTIUNIT,69
170,"2312 Ellsworth St 6, Berkeley, CA 94704",6001422800,9.189519339,80,143.5907225,33,1650,0,1,206,1,37.867508,-122.263885,0.612671806,0.08699194,0.952561743,Berkeley,APARTMENT,67
171,"2404 Fulton St 302, Berkeley, CA 94704",6001422900,9.170834519,59.6,371.7452012,34,3150,2,1,590,1,37.865524,-122.26589,0.393949214,0.21747985,0.156585492,Berkeley,APARTMENT,66
172,"2607 Ellsworth St 301, Berkeley, CA 94704",6001423602,9.189519339,65.8,242.091266,28,3200,2,1,710,1,37.86242,-122.26223,0.351074615,0.216858479,0.342996792,Berkeley,APARTMENT,72
173,"2609 Ellsworth St, Berkeley, CA",6001423602,9.189519339,65.8,242.091266,28,3400,2,1,760,2,37.8622,-122.26218,0.34175405,0.207537914,0.347346389,Berkeley,MULTIUNIT,72
174,"2210 Durant Ave, Berkeley, CA",6001422800,9.189519339,80,143.5907225,35,3200,2,1,580,2,37.86671,-122.26521,0.502067768,0.050952422,0.724518586,Berkeley,MULTIUNIT,65
175,"2020 Channing Way APT 9, Berkeley, CA 94704",6001422900,9.170834519,59.6,371.7452012,35,4650,4,1,716,1,37.86539,-122.2688,0.160313718,0.202566946,0.41631857,Berkeley,APARTMENT,65
176,"2055 Center St, Berkeley, CA",6001422900,9.170834519,59.6,371.7452012,37,3350,1,1,720,10,37.87045,-122.26933,0.245441545,0.223072189,0.156585492,Berkeley,MULTIUNIT,63
177,"2500 Durant Ave, Berkeley, CA",6001422800,9.189519339,80,143.5907225,33,2795,1,1,590,3,37.867622,-122.25865,0.214372995,0.375308084,0.011184678,Berkeley,MULTIUNIT,67
178,"2480 Bancroft Way, Berkeley, CA",6001422800,9.189519339,80,143.5907225,34,7000,4,2,908,2,37.86841,-122.259674,0.833879882,0.265946788,0.041631857,Berkeley,MULTIUNIT,66
179,"2750 Dwight Way, Berkeley, CA",6001423700,9.032993512,34.1,440.2450392,28,3095,2,1,545,2,37.865593,-122.25183,0.26718953,0.736946006,0.377172197,Berkeley,MULTIUNIT,72
180,"2333 Channing Way, Berkeley, CA",6001422800,9.189519339,80,143.5907225,30,2695,2,1,546,4,37.866734,-122.262054,0.097555247,0.481562525,0.382764536,Berkeley,MULTIUNIT,70
181,"2501 Benvenue Ave, Berkeley, CA",6001423602,9.189519339,65.8,242.091266,30,3295,2,1,655,3,37.8653,-122.25492,0.289558886,0.536243173,0.419425425,Berkeley,MULTIUNIT,70
182,"2067 University Ave, Berkeley, CA",6001422400,9.170834519,36.5,432.6027369,37,2650,1,1,394,4,37.872345,-122.26916,0.288937515,0.400784295,0.443658894,Berkeley,MULTIUNIT,63
183,"2252 Parker St 103W, Berkeley, CA 94704",6001423602,9.189519339,65.8,242.091266,29,5545,3,2,900,1,37.862442,-122.26287,0.686614955,0.287694773,0.448629862,Berkeley,APARTMENT,71
184,"1927 Dwight Way, Berkeley, CA 94704",6001422900,9.170834519,59.6,371.7452012,32,2900,2,1,782,1,37.86378,-122.27087,0.344239534,0.178333477,0.276510095,Berkeley,APARTMENT,68
185,"2015 Haste St APT 205, Berkeley, CA 94704",6001422900,9.170834519,59.6,371.7452012,32,2995,2,1,717,1,37.864918,-122.269264,0.579117772,0.389599617,0.328705259,Berkeley,APARTMENT,68
186,"2546 Warring St, Berkeley, CA",6001423700,9.032993512,34.1,440.2450392,29,4995,3,2,1000,2,37.864365,-122.25052,0.096312505,0.727625441,0.34796776,Berkeley,MULTIUNIT,71
187,"2025 Durant Ave, Berkeley, CA",6001422900,9.170834519,59.6,371.7452012,34,2095,0,1,430,12,37.867,-122.26922,0.16777017,0.300743564,0.461678653,Berkeley,MULTIUNIT,66
188,"2121 Dwight Way, Berkeley, CA",6001422900,9.170834519,59.6,371.7452012,38,2749,0,1,504,11,37.86431,-122.26684,0.538107286,0.83263714,0.518844785,Berkeley,MULTIUNIT,62
189,"2610 Regent St, Berkeley, CA 94704",6001423602,9.189519339,65.8,242.091266,28,4595,3,1,995,1,37.862923,-122.25795,0.385871391,0.301986306,0.184547187,Berkeley,APARTMENT,72
190,"2510 Bancroft Way, Berkeley, CA",6001422800,9.189519339,80,143.5907225,36,2595,0,1,385,3,37.86855,-122.258766,0.877997223,0.310064129,0.361016551,Berkeley,MULTIUNIT,64
191,"2124 Bancroft Way, Berkeley, CA",6001422900,9.170834519,59.6,371.7452012,38,2795,0,1,390,11,37.867313,-122.266525,0.1864113,0.115575006,0.28583066,Berkeley,MULTIUNIT,62
192,"2644 Dwight Way APT 2, Berkeley, CA 94704",6001423602,9.189519339,65.8,242.091266,30,2225,0,1,430,1,37.865524,-122.25448,0.231771383,0.664245599,0.547427851,Berkeley,APARTMENT,70
193,"2520 College Ave APT 104, Berkeley, CA 94704",6001423602,9.189519339,65.8,242.091266,30,5795,3,2,1037,1,37.864826,-122.254196,0.169012912,0.57166132,0.211887511,Berkeley,APARTMENT,70
194,"2461 Warring St, Berkeley, CA",6001422700,9.032993512,68.3,20.92008492,29,2150,1,1,700,4,37.866386,-122.25018,0.232392754,0.864327061,0.48466938,Berkeley,MULTIUNIT,71
195,"2033 Blake St, Berkeley, CA",6001423500,9.234587905,38.6,605.423531,35,2675,0,1,450,5,37.863224,-122.26829,0.398920182,0.075185891,0.169012912,Berkeley,MULTIUNIT,65
196,"2072 Addison St, Berkeley, CA",6001422900,9.170834519,59.6,371.7452012,38,2900,1,1,567,8,37.870876,-122.26889,0.034175405,0.147264927,0.188275413,Berkeley,MULTIUNIT,62
197,"2038 Parker St, Berkeley, CA",6001423500,9.234587905,38.6,605.423531,39,2779,0,1,556,11,37.861843,-122.26762,0.469135105,0.203188317,0.239849206,Berkeley,MULTIUNIT,61
198,"2732 Haste St 28, Berkeley, CA 94704",6001422700,9.032993512,68.3,20.92008492,29,3150,2,1,598,1,37.86649,-122.25238,0.233014125,0.78292746,0.423153651,Berkeley,APARTMENT,71
199,"2309 Blake St, Berkeley, CA",6001423602,9.189519339,65.8,242.091266,29,1895,0,1,350,9,37.86395,-122.26235,0.4970968,0.333676227,0.243577432,Berkeley,MULTIUNIT,71
200,"2028 Bancroft Way, Berkeley, CA",6001422900,9.170834519,59.6,371.7452012,36,2695,0,1,338,13,37.86735,-122.26891,0.09941936,0.321248807,0.358531067,Berkeley,MULTIUNIT,64
201,"2520 Hillegass Ave, Berkeley, CA 94704",6001423602,9.189519339,65.8,242.091266,28,3595,2,1,800,1,37.86461,-122.25681,0.147886298,0.425017764,0.308200016,Berkeley,APARTMENT,72
202,"2028 Dwight Way, Berkeley, CA",6001423500,9.234587905,38.6,605.423531,35,2695,2,1,568,7,37.86357,-122.2684,0.398920182,0.075185891,0.169012912,Berkeley,MULTIUNIT,65
203,"2535 College Ave, Berkeley, CA",6001423700,9.032993512,34.1,440.2450392,30,2250,1,1,516,6,37.864388,-122.25344,0.136080249,0.538107286,0.178333477,Berkeley,MULTIUNIT,70
204,"2640 Shattuck Ave, Berkeley, CA",6001423500,9.234587905,38.6,605.423531,37,2725,0,1,402,14,37.860985,-122.26735,0.234256867,0.326219775,0.297636709,Berkeley,MULTIUNIT,63
205,"2119 University Ave, Berkeley, CA",6001422400,9.170834519,36.5,432.6027369,36,3078,1,1,465,13,37.87263,-122.26774,0.1242742,0.223072189,0.265325417,Berkeley,MULTIUNIT,64
206,"2616 Telegraph Ave, Berkeley, CA",6001423602,9.189519339,65.8,242.091266,33,2295,1,1,472,5,37.86251,-122.25905,0.350453244,0.155964121,0.18019759,Berkeley,MULTIUNIT,67
207,"2620 Hillegass Ave, Berkeley, CA",6001423602,9.189519339,65.8,242.091266,27,3295,2,1,621,5,37.862595,-122.256615,0.20505243,0.305093161,0.284587918,Berkeley,MULTIUNIT,73
208,"2117 Haste St, Berkeley, CA",6001422900,9.170834519,59.6,371.7452012,34,3000,2,1,554,3,37.865284,-122.266365,0.09941936,0.141672588,0.080156859,Berkeley,MULTIUNIT,66
209,"1945 Berkeley Way, Berkeley, CA",6001422400,9.170834519,36.5,432.6027369,33,2200,1,1,550,2,37.8729,-122.27128,0.053437906,0.438687926,0.16155646,Berkeley,MULTIUNIT,67
210,"2221 Parker St, Berkeley, CA",6001423602,9.189519339,65.8,242.091266,29,3195,2,1,750,2,37.862858,-122.26401,0.619506887,0.172741138,0.382143165,Berkeley,MULTIUNIT,71
211,"2240 Blake St, Berkeley, CA",6001423602,9.189519339,65.8,242.091266,29,2095,0,1,500,8,37.863342,-122.26306,0.73321778,0.29204437,0.495854058,Berkeley,MULTIUNIT,71
212,"2412 Ellsworth St 15, Berkeley, CA 94704",6001422800,9.189519339,80,143.5907225,30,1995,0,1,400,1,37.865784,-122.26362,0.128623797,0.206295172,0.351074615,Berkeley,APARTMENT,70
213,"2020 Kittredge St, Berkeley, CA",6001422900,9.170834519,59.6,371.7452012,35,2436,1,1,502,5,37.867825,-122.26943,0.133594765,0.50331051,0.269675014,Berkeley,MULTIUNIT,65
214,"2241 Durant Ave, Berkeley, CA",6001422800,9.189519339,80,143.5907225,33,1995,0,1,330,7,37.867363,-122.263855,0.060894358,0.123031458,0.400784295,Berkeley,MULTIUNIT,67
215,"2009-2011 Haste St 2011-6, Berkeley, CA 94704",6001422900,9.170834519,59.6,371.7452012,32,1895,1,1,362,1,37.864895,-122.26943,0.567933094,0.377793568,0.31689921,Berkeley,APARTMENT,68
216,"2030 Dwight Way APT 303, Berkeley, CA 94704",6001423500,9.234587905,38.6,605.423531,35,2095,1,1,539,1,37.863594,-122.26824,0.384007278,0.060894358,0.154721379,Berkeley,APARTMENT,65
217,"2398 Parker St 3, Berkeley, CA 94704",6001423602,9.189519339,65.8,242.091266,29,2095,1,1,485,1,37.86276,-122.26053,0.223072189,0.259733078,0.21126614,Berkeley,APARTMENT,71
218,"1935 Addison St, Berkeley, CA",6001422900,9.170834519,59.6,371.7452012,36,2295,0,1,393,15,37.871033,-122.27136,0.050952422,0.400162924,0.16155646,Berkeley,MULTIUNIT,64
219,"2511-2515 Parker St, Berkeley, CA",6001423602,9.189519339,65.8,242.091266,27,1995,0,1,350,10,37.863647,-122.25697,0.393327843,0.309442758,0.19262501,Berkeley,MULTIUNIT,73
220,"2491 Ellsworth St, Berkeley, CA",6001422800,9.189519339,80,143.5907225,31,1790,0,1,550,2,37.864788,-122.26277,0.147264927,0.282102434,0.301364935,Berkeley,MULTIUNIT,69
221,"2437 Piedmont Ave, Berkeley, CA",6001422700,9.032993512,68.3,20.92008492,29,1733,3,2,825,5,37.866493,-122.25119,0.4970968,0.847550044,0.487776235,Berkeley,MULTIUNIT,71
222,"2070 University Ave, Berkeley, CA",6001422900,9.170834519,59.6,371.7452012,37,1795,0,1,525,2,37.87178,-122.269035,0.170877025,0.085127827,0.254140739,Berkeley,MULTIUNIT,63
223,"2525 Benvenue Ave APT 10, Berkeley, CA 94704",6001423602,9.189519339,65.8,242.091266,28,3595,2,1,730,1,37.864647,-122.25474,0.230528641,0.490261719,0.373443971,Berkeley,APARTMENT,72
224,"2620 Regent St D, Berkeley, CA 94704",6001423602,9.189519339,65.8,242.091266,28,8250,5,3,1000,1,37.862644,-122.25793,0.405133892,0.241713319,0.204431059,Berkeley,APARTMENT,72
225,"2330 Warring St APT 131, Berkeley, CA 94704",6001422700,9.032993512,68.3,20.92008492,27,6195,3,2,1320,1,37.86814,-122.25092,0.454843572,0.976795212,0.56544761,Berkeley,APARTMENT,73
226,"1988 Martin Luther King Jr Way, Berkeley, CA",6001422300,9.049984366,25.3,738.8329926,37,2500,1,1,621,5,37.87201,-122.2735,0.708984311,0.485912122,0.247305658,Berkeley,MULTIUNIT,63
227,"2322 Shattuck Ave, Berkeley, CA",6001422900,9.170834519,59.6,371.7452012,40,1895,0,1,440,11,37.86713,-122.268135,0.17398388,0.258490336,0.418804054,Berkeley,MULTIUNIT,60
228,"2515 Benvenue Ave, Berkeley, CA 94704",6001423602,9.189519339,65.8,242.091266,28,3150,2,1,640,1,37.864983,-122.25476,0.311928242,0.513252446,0.396434698,Berkeley,APARTMENT,72
229,"2490 Channing Way, Berkeley, CA",6001422800,9.189519339,80,143.5907225,32,795,1,1,420,5,37.866737,-122.25904,0.052816535,0.408862118,0.108118554,Berkeley,MULTIUNIT,68
230,"2315 Parker St, Berkeley, CA",6001423602,9.189519339,65.8,242.091266,28,2395,1,1,500,8,37.863125,-122.26203,0.53437906,0.291422999,0.280859692,Berkeley,MULTIUNIT,72
231,"2510 Channing Way, Berkeley, CA",6001422800,9.189519339,80,143.5907225,30,1395,0,1,651,20,37.86674,-122.25826,0.144158072,0.450493975,0.122410087,Berkeley,MULTIUNIT,70
232,"12 Panoramic Way, Berkeley, CA",6001422700,9.032993512,68.3,20.92008492,24,1910,3,1,100,5,37.868637,-122.24955,0.676673019,1.162585141,0.75185891,Berkeley,MULTIUNIT,76
233,"1950 Addison St, Berkeley, CA",6001422900,9.170834519,59.6,371.7452012,36,3183,0,1,517,8,37.870636,-122.271866,0.082642343,0.368473003,0.129866539,Berkeley,MULTIUNIT,64
234,"2425 Prospect St, Berkeley, CA",6001422700,9.032993512,68.3,20.92008492,27,1120,1,1,71,71,37.86649,-122.249374,0.285209289,0.917143596,0.537485915,Berkeley,MULTIUNIT,73
235,"2414 Telegraph Ave, Berkeley, CA",6001422800,9.189519339,80,143.5907225,32,1680,1,1,91,14,37.86652,-122.25906,0.089477424,0.445523007,0.117439119,Berkeley,MULTIUNIT,68
236,"2715 Dwight Way, Berkeley, CA",6001422700,9.032993512,68.3,20.92008492,27,1240,1,1,100,10,37.86595,-122.252975,0.451115346,0.827666172,0.467892363,Berkeley,MULTIUNIT,73
237,"2430 Prospect St, Berkeley, CA",6001422700,9.032993512,68.3,20.92008492,27,1100,3,1,74,19,37.866985,-122.25004,0.324355662,0.956289969,0.576632288,Berkeley,MULTIUNIT,73
238,"2099 Martin Luther King Jr Way, Berkeley, CA",6001422900,9.170834519,59.6,371.7452012,37,1000,1,1,588,10,37.87089,-122.27263,0.193246381,0.292665741,0.053437906,Berkeley,MULTIUNIT,63
239,"2709 Dwight Way, Berkeley, CA",6001422700,9.032993512,68.3,20.92008492,28,1795,0,1,250,3,37.8659,-122.25334,0.470999218,0.847550044,0.730732296,Berkeley,MULTIUNIT,72
240,"2024 University Ave 17, Berkeley, CA 94704",6001422900,9.170834519,59.6,371.7452012,37,2195,1,1,435,1,37.8716,-122.26996,0.261597191,0.129866539,0.465406879,Berkeley,APARTMENT,63
241,"2901 Channing Way, Berkeley, CA",6001422700,9.032993512,68.3,20.92008492,27,995,1,1,75,17,37.868114,-122.25048,0.365366148,0.974931099,0.564204868,Berkeley,MULTIUNIT,73
242,"2350 Prospect St, Berkeley, CA",6001422700,9.032993512,68.3,20.92008492,27,1210,1,1,86,2,37.86831,-122.25016,0.41631857,1.021533924,0.610807693,Berkeley,MULTIUNIT,73
243,"2001 Milvia St, Berkeley, CA",6001422900,9.170834519,59.6,371.7452012,36,1255,0,1,345,14,37.871456,-122.27048,0.429988732,0.479698412,0.240470577,Berkeley,MULTIUNIT,64
244,"2747 Haste St, Berkeley, CA 94704",6001422700,9.032993512,68.3,20.92008492,29,2900,2,1,720,1,37.86695,-122.252045,0.275888724,0.82642343,0.544320996,Berkeley,APARTMENT,71
245,"2033 Haste St, Berkeley, CA",6001422900,9.170834519,59.6,371.7452012,34,1895,1,1,450,2,37.865063,-122.26863,0.61515729,0.016777017,0.364123406,Berkeley,MULTIUNIT,66
246,"2450 Milvia St, Berkeley, CA",6001422900,9.170834519,59.6,371.7452012,32,1595,0,1,275,4,37.86387,-122.27021,0.469135105,0.141672588,0.239849206,Berkeley,MULTIUNIT,68
247,"1918 Channing Way, Berkeley, CA",6001422900,9.170834519,59.6,371.7452012,31,1895,0,1,312,2,37.86503,-122.27124,0.172119767,0.337404453,0.417561312,Berkeley,MULTIUNIT,69
248,"2556 Telegraph Ave, Berkeley, CA",6001423602,9.189519339,65.8,242.091266,34,1350,3,1,918,5,37.863937,-122.258965,0.227421786,0.254140739,0.061515729,Berkeley,MULTIUNIT,66
249,"2210 Martin Luther King Jr Way, Berkeley, CA",6001423000,9.170834519,21.9,836.1608147,35,1080,5,2,83,13,37.868225,-122.272995,0.135458878,0.498960913,0.260354449,Berkeley,MULTIUNIT,65
250,"2508 Hillegass Ave, Berkeley, CA",6001423602,9.189519339,65.8,242.091266,28,1795,0,1,300,2,37.86491,-122.25673,0.127381055,0.444901636,0.328083888,Berkeley,MULTIUNIT,72
251,"2401 Piedmont Ave, Berkeley, CA",6001422700,9.032993512,68.3,20.92008492,27,600,1,1,200,3,37.86761,-122.25143,0.439930668,0.945726662,0.53437906,Berkeley,MULTIUNIT,73
252,"2701 Durant Ave, Berkeley, CA",6001422700,9.032993512,68.3,20.92008492,29,1240,1,1,68,33,37.868496,-122.25409,0.456707685,0.956289969,0.628206081,Berkeley,MULTIUNIT,71
253,"2434 Piedmont Ave, Berkeley, CA",6001422700,9.032993512,68.3,20.92008492,29,995,1,1,72,20,37.866543,-122.252014,0.284587918,0.915900854,0.536864544,Berkeley,MULTIUNIT,71
254,"2335 Warring St, Berkeley, CA",6001422700,9.032993512,68.3,20.92008492,27,995,1,1,75,17,37.86828,-122.25042,0.460435911,0.982387551,0.571039949,Berkeley,MULTIUNIT,73
255,"2025 Kala Bagai Way, Berkeley, CA",6001422900,9.170834519,59.6,371.7452012,36,1298,0,1,349,4,37.87168,-122.26747,0.15534275,0.132973394,0.238606464,Berkeley,MULTIUNIT,64
256,"2618 College Ave, Berkeley, CA",6001423602,9.189519339,65.8,242.091266,30,1150,1,1,99,8,37.862926,-122.254005,0.03728226,0.45981454,0.080156859,Berkeley,MULTIUNIT,70
257,"2008 Shattuck Ave, Berkeley, CA",6001422900,9.170834519,59.6,371.7452012,38,1100,0,1,146,2,37.871822,-122.26855,0.115575006,0.066486697,0.19883872,Berkeley,MULTIUNIT,62
258,"2108 Berkeley Way, Berkeley, CA",6001422400,9.170834519,36.5,432.6027369,34,1473,0,1,457,23,37.87284,-122.26807,0.039767744,0.138565733,0.306957274,Berkeley,MULTIUNIT,66
259,"2729 Dwight Way, Berkeley, CA",6001422700,9.032993512,68.3,20.92008492,27,1210,1,1,92,2,37.86606,-122.25239,0.288937515,0.79535488,0.435581071,Berkeley,MULTIUNIT,73
260,"2217 Dwight Way, Berkeley, CA",6001422800,9.189519339,80,143.5907225,32,1995,1,1,500,2,37.86462,-122.26443,0.237985093,0.886075046,0.392085101,Berkeley,MULTIUNIT,68
261,"2218 Haste St, Berkeley, CA",6001422800,9.189519339,80,143.5907225,32,1995,0,1,420,7,37.86499,-122.2645,0.415075828,0.464785508,0.177712106,Berkeley,MULTIUNIT,68
262,"2632 Warring St, Berkeley, CA",6001423700,9.032993512,34.1,440.2450392,29,3200,2,1,850,2,37.86293,-122.25052,0.034796776,0.687236326,0.305714532,Berkeley,MULTIUNIT,71
263,"2717 Channing Way, Berkeley, CA",6001422700,9.032993512,68.3,20.92008492,27,1699,0,1,380,8,37.86785,-122.25342,0.22369356,0.723275844,0.395191956,Berkeley,MULTIUNIT,73
264,"2319 College Ave APT B, Berkeley, CA 94704",6001422700,9.032993512,68.3,20.92008492,29,6495,3,2,1031,1,37.868633,-122.25411,0.427503248,0.955668598,0.62758471,Berkeley,APARTMENT,71
265,"2637 Fulton St B, Berkeley, CA 94704",6001423602,9.189519339,65.8,242.091266,31,3900,3,1,800,1,37.861095,-122.26426,0.37903631,0.095069763,0.434338329,Berkeley,APARTMENT,69
266,"1924 Channing Way D, Berkeley, CA 94704",6001422900,9.170834519,59.6,371.7452012,31,3095,2,1,750,1,37.865055,-122.27108,0.162799202,0.328705259,0.408240747,Berkeley,APARTMENT,69
267,"2414 Dwight Way APT 2, Berkeley, CA 94704",6001423602,9.189519339,65.8,242.091266,30,6500,4,2,1500,1,37.864666,-122.25997,0.040389115,0.40389115,0.29825808,Berkeley,APARTMENT,70
268,"2419 Prospect St A, Berkeley, CA 94704",6001422700,9.032993512,68.3,20.92008492,27,3400,2,1,800,1,37.867035,-122.249466,0.323734291,0.955047227,0.575389546,Berkeley,APARTMENT,73
269,"2218 Bhaste St 6, Berkeley, CA 94704",6001422800,9.189519339,80,143.5907225,33,1995,0,1,420,1,37.866444,-122.25975,0.011184678,0.367230261,0.149750411,Berkeley,APARTMENT,67
270,"2717 Channing Way APT 18, Berkeley, CA 94704",6001422700,9.032993512,68.3,20.92008492,27,1999,0,1,384,1,37.867855,-122.25343,0.223072189,0.722654473,0.394570585,Berkeley,APARTMENT,73
271,"1907 Haste St APT 2C, Berkeley, CA 94704",6001422900,9.170834519,59.6,371.7452012,32,2895,2,1,750,1,37.86457,-122.27186,0.173362509,0.477834299,0.433095587,Berkeley,APARTMENT,68
272,"2622 Dana St, Berkeley, CA 94704",6001423602,9.189519339,65.8,242.091266,30,6000,4,1,1500,1,37.861988,-122.2604,0.314413726,0.229285899,0.253519368,Berkeley,APARTMENT,70
273,"2538 Hillegass Ave APT C, Berkeley, CA 94704",6001423602,9.189519339,65.8,242.091266,27,3500,2,1,1000,1,37.86389,-122.256744,0.459193169,0.374686713,0.257868965,Berkeley,APARTMENT,73
274,"2344 Parker St, Berkeley, CA 94704",6001423602,9.189519339,65.8,242.091266,28,4375,3,2,875,1,37.862705,-122.26092,0.237985093,0.331812114,0.226179044,Berkeley,SINGLE_FAMILY,72
275,"2408 Atherton St, Berkeley, CA 94704",6001422800,9.189519339,80,143.5907225,31,7950,4,2,2044,1,37.865788,-122.26469,0.003106855,0.26097582,0.224314931,Berkeley,SINGLE_FAMILY,69
276,"2636 Benvenue Ave B, Berkeley, CA 94704",6001423602,9.189519339,65.8,242.091266,27,2200,1,1,500,1,37.862206,-122.255264,0.147886298,0.343618163,0.106875812,Berkeley,APARTMENT,73
277,"1909 Haste St APT 1, Berkeley, CA 94704",6001422900,9.170834519,59.6,371.7452012,32,2195,1,1,450,1,37.86465,-122.27171,0.177712106,0.482183896,0.437445184,Berkeley,APARTMENT,68
278,"2432 Milvia St, Berkeley, CA 94704",6001422900,9.170834519,59.6,371.7452012,32,7195,6,2,1640,1,37.864212,-122.27006,0.492125832,0.164663315,0.262839933,Berkeley,SINGLE_FAMILY,68
279,"2610 Hillegass Ave, Berkeley, CA",6001423602,9.189519339,65.8,242.091266,27,2995,2,1,540,2,37.86302,-122.25667,0.281481063,0.334297598,0.25476211,Berkeley,MULTIUNIT,73
280,"1911B Berkeley Way, Berkeley, CA 94704",6001422400,9.170834519,36.5,432.6027369,35,1785,0,1,450,1,37.872616,-122.27136,0.045981454,0.446144378,0.154100008,Berkeley,APARTMENT,65
281,"2150 Channing Way 26, Berkeley, CA 94704",6001422900,9.170834519,59.6,371.7452012,34,3195,2,1,775,1,37.865784,-122.265884,0.106254441,0.332433485,0.17398388,Berkeley,APARTMENT,66
282,"2617 Hillegass Ave, Berkeley, CA",6001423602,9.189519339,65.8,242.091266,27,4895,3,1,844,3,37.862747,-122.25587,0.259111707,0.311928242,0.218722592,Berkeley,MULTIUNIT,73
283,"2537 Benvenue Ave APT 101, Berkeley, CA 94704",6001423602,9.189519339,65.8,242.091266,28,1850,1,1,475,1,37.864258,-122.25464,0.203188317,0.462921395,0.246062916,Berkeley,APARTMENT,72
284,"2227 Carleton St, Berkeley, CA 94704",6001423602,9.189519339,65.8,242.091266,29,7000,5,2,1000,1,37.861973,-122.26364,0.370958487,0.119924603,0.459193169,Berkeley,SINGLE_FAMILY,71
285,"2610 Hillegass Ave, Berkeley, CA",6001423602,9.189519339,65.8,242.091266,27,3395,2,1,540,3,37.863018,-122.25665,0.281481063,0.334297598,0.25476211,Berkeley,MULTIUNIT,73
286,"2007 Haste St APT 8, Berkeley, CA 94704",6001422900,9.170834519,59.6,371.7452012,32,1995,1,1,525,1,37.864876,-122.269585,0.561719384,0.372201229,0.3106855,Berkeley,APARTMENT,68
287,"2310 Blake St, Berkeley, CA 94704",6001423602,9.189519339,65.8,242.091266,28,8800,5,2,1635,1,37.863564,-122.26232,0.499582284,0.331190743,0.246684287,Berkeley,SINGLE_FAMILY,72
288,"1936 Blake St, Berkeley, CA",6001423500,9.234587905,38.6,605.423531,30,2395,2,1,596,2,37.862385,-122.270226,0.199460091,0.221829447,0.291422999,Berkeley,MULTIUNIT,70
289,"2539 Durant Ave APT 9, Berkeley, CA 94704",6001422800,9.189519339,80,143.5907225,30,3195,2,1,552,1,37.868313,-122.2573,0.137944362,0.50952422,0.309442758,Berkeley,APARTMENT,70
290,"2147 Blake St, Berkeley, CA 94704",6001423500,9.234587905,38.6,605.423531,33,10200,7,3,2000,1,37.863525,-122.26536,0.508281478,0.35418147,0.249169771,Berkeley,SINGLE_FAMILY,67
291,"2537 Fulton St, Berkeley, CA",6001423602,9.189519339,65.8,242.091266,31,2795,2,1,659,2,37.86289,-122.264626,0.594652047,0.147886298,0.357288325,Berkeley,MULTIUNIT,69
292,"2414 Dana St 6, Berkeley, CA 94704",6001422800,9.189519339,80,143.5907225,30,3500,2,1,795,1,37.865955,-122.26123,0.052195164,0.376550826,0.52816535,Berkeley,APARTMENT,70
293,"2239 Channing Way, Berkeley, CA",6001422800,9.189519339,80,143.5907225,31,2450,1,1,442,3,37.86652,-122.26386,0.068972181,0.195110494,0.290801628,Berkeley,MULTIUNIT,69
294,"2617 College Ave, Berkeley, CA",6001423700,9.032993512,34.1,440.2450392,30,2125,1,1,550,2,37.863285,-122.25332,0.059651616,0.481562525,0.101904844,Berkeley,MULTIUNIT,70
295,"2624 College Ave BASEMENT, Berkeley, CA 94704",6001423602,9.189519339,65.8,242.091266,32,2250,0,1,500,1,37.862694,-122.253876,0.021126614,0.443037523,0.063379842,Berkeley,APARTMENT,68
296,"2530 College Ave APT 4, Berkeley, CA 94704",6001423602,9.189519339,65.8,242.091266,30,2850,1,1,550,1,37.864555,-122.25417,0.150371782,0.55302019,0.193246381,Berkeley,APARTMENT,70
297,"2033 Martin Luther King Jr Way 5, Berkeley, CA 94704",6001422900,9.170834519,59.6,371.7452012,38,2595,2,1,725,1,37.87127,-122.272675,0.157828234,0.265946788,0.027340324,Berkeley,APARTMENT,62
298,"2417 Blake St, Berkeley, CA",6001423602,9.189519339,65.8,242.091266,30,2195,1,1,450,2,37.864315,-122.25974,0.190139526,0.325598404,0.092584279,Berkeley,MULTIUNIT,70
299,"2426 Fulton St APT 3, Berkeley, CA 94704",6001422900,9.170834519,59.6,371.7452012,34,2888,2,1,734,1,37.864826,-122.265755,0.346103647,0.42253228,0.108739925,Berkeley,APARTMENT,66
300,"1930 Channing Way, Berkeley, CA",6001422900,9.170834519,59.6,371.7452012,31,2750,2,1,555,4,37.86508,-122.270805,0.144158072,0.313792355,0.393327843,Berkeley,MULTIUNIT,69
301,"2617 Hillegass Ave APT 2C, Berkeley, CA 94704",6001423602,9.189519339,65.8,242.091266,27,4850,3,1,844,1,37.862755,-122.25588,0.259733078,0.312549613,0.219343963,Berkeley,APARTMENT,73
302,"2226 Parker St, Berkeley, CA 94704",6001423602,9.189519339,65.8,242.091266,29,6195,5,2,1800,1,37.862362,-122.26354,0.639390759,0.19262501,0.401405666,Berkeley,TOWNHOUSE,71
303,"1930 Channing Way, Berkeley, CA",6001422900,9.170834519,59.6,371.7452012,31,2350,2,1,365,2,37.86509,-122.27082,0.144779443,0.314413726,0.393949214,Berkeley,MULTIUNIT,69
304,"2515 Dana St APT 9, Berkeley, CA 94704",6001423602,9.189519339,65.8,242.091266,30,1995,1,1,700,1,37.864204,-122.26039,0.126138313,0.396434698,0.163420573,Berkeley,APARTMENT,70
305,"2619 College Ave, Berkeley, CA",6001423700,9.032993512,34.1,440.2450392,31,1800,0,1,100,2,37.863144,-122.2533,0.04970968,0.471620589,0.091962908,Berkeley,MULTIUNIT,69
306,"2539 Durant Ave 17, Berkeley, CA 94704",6001422800,9.189519339,80,143.5907225,30,1795,0,1,344,1,37.868317,-122.25731,0.138565733,0.510145591,0.310064129,Berkeley,APARTMENT,70
307,"2550 Telegraph Ave, Berkeley, CA",6001423602,9.189519339,65.8,242.091266,33,1750,0,1,635,2,37.86432,-122.259,0.22990727,0.292665741,0.059030245,Berkeley,MULTIUNIT,67
308,"2185 Dwight Way APT 1, Berkeley, CA 94704",6001422900,9.170834519,59.6,371.7452012,34,7700,5,3,1410,1,37.86448,-122.2655,0.305093161,0.772985524,0.459193169,Berkeley,APARTMENT,66
309,"2811-2815 Channing Way, Berkeley, CA",6001422700,9.032993512,68.3,20.92008492,27,5695,3,1,815,2,37.86788,-122.25174,0.321248807,0.903473434,0.492747203,Berkeley,MULTIUNIT,73
310,"2211 Channing Way, Berkeley, CA",6001422800,9.189519339,80,143.5907225,32,2995,2,1,651,2,37.86636,-122.26514,0.059651616,0.265946788,0.219965334,Berkeley,MULTIUNIT,68
311,"2126 Bancroft Way, Berkeley, CA",6001422900,9.170834519,59.6,371.7452012,37,2995,2,1,836,3,37.867565,-122.26642,0.259111707,0.32932663,0.211887511,Berkeley,MULTIUNIT,63
312,"2216 Martin Luther King Jr Way, Berkeley, CA 94704",6001423000,9.170834519,21.9,836.1608147,35,5850,3,2,1200,1,37.867966,-122.273026,0.135458878,0.498960913,0.260354449,Berkeley,APARTMENT,65
313,"2619 College Ave E, Berkeley, CA 94704",6001423700,9.032993512,34.1,440.2450392,31,7500,4,2,1000,1,37.863148,-122.25332,0.04970968,0.47224196,0.092584279,Berkeley,APARTMENT,69
314,"2185 Dwight Way 4, Berkeley, CA 94704",6001422900,9.170834519,59.6,371.7452012,34,7700,5,3,1449,1,37.864483,-122.2655,0.305093161,0.772985524,0.459193169,Berkeley,APARTMENT,66
315,"2644 Hillegass Ave B, Berkeley, CA 94704",6001423602,9.189519339,65.8,242.091266,29,3795,2,1,1003,1,37.861843,-122.25635,0.152235895,0.251655255,0.158449605,Berkeley,APARTMENT,71
316,"2023 Channing Way, Berkeley, CA",6001422900,9.170834519,59.6,371.7452012,34,3495,2,1,640,3,37.865864,-122.26899,0.162177831,0.206916543,0.411968973,Berkeley,MULTIUNIT,66
317,"2540 Regent St, Berkeley, CA",6001423602,9.189519339,65.8,242.091266,29,3195,2,1,700,3,37.86364,-122.25792,0.375308084,0.290801628,0.17398388,Berkeley,MULTIUNIT,71
318,"2215 Channing Way, Berkeley, CA",6001422800,9.189519339,80,143.5907225,32,3195,2,1,700,4,37.86638,-122.26497,0.050331051,0.256626223,0.22990727,Berkeley,MULTIUNIT,68
319,"2418 Dwight Way, Berkeley, CA",6001423602,9.189519339,65.8,242.091266,30,2025,1,1,600,2,37.864677,-122.259796,0.03106855,0.394570585,0.288937515,Berkeley,MULTIUNIT,70
320,"2401 Warring St C, Berkeley, CA 94704",6001422700,9.032993512,68.3,20.92008492,27,9495,5,3,2100,1,37.86781,-122.25057,0.351695986,0.961882308,0.550534706,Berkeley,APARTMENT,73
321,"2434-2436 Fulton St, Berkeley, CA 94704",6001423602,9.189519339,65.8,242.091266,34,7295,4,2,1850,1,37.861126,-122.26461,0.384007278,0.090098795,0.429367361,Berkeley,APARTMENT,66
322,"2641 College Ave B, Berkeley, CA 94704",6001423700,9.032993512,34.1,440.2450392,33,8000,6,2,1336,1,37.862488,-122.25324,0.004349597,0.426260506,0.046602825,Berkeley,APARTMENT,67
323,"2533 Hillegass Ave, Berkeley, CA",6001423602,9.189519339,65.8,242.091266,26,1769,0,1,400,2,37.864204,-122.25601,0.179576219,0.393327843,0.276510095,Berkeley,MULTIUNIT,74
324,"2545 Benvenue Ave, Berkeley, CA",6001423602,9.189519339,65.8,242.091266,28,2195,1,1,436,2,37.86397,-122.25467,0.183925816,0.443658894,0.226179044,Berkeley,MULTIUNIT,72
325,"2015 Carleton St, Berkeley, CA 94704",6001423500,9.234587905,38.6,605.423531,31,3100,1,1,800,1,37.861282,-122.26891,0.185168558,0.605215354,0.233635496,Berkeley,SINGLE_FAMILY,69
326,"2124 Kittredge St A/B, Berkeley, CA 94704",6001422900,9.170834519,59.6,371.7452012,39,1925,1,1,600,1,37.86833,-122.26718,0.160313718,0.26097582,0.113089522,Berkeley,APARTMENT,61
327,"2122 Dwight Way, Berkeley, CA",6001423500,9.234587905,38.6,605.423531,36,2050,0,1,525,5,37.863865,-122.26655,0.383385907,0.467892363,0.154100008,Berkeley,MULTIUNIT,64
328,"2524 Dwight Way 2524, Berkeley, CA 94704",6001423602,9.189519339,65.8,242.091266,30,17995,9,4,4250,1,37.864986,-122.25738,0.521330269,0.52195164,0.405133892,Berkeley,APARTMENT,70
329,"2738 Parker St, Berkeley, CA 94704",6001423700,9.032993512,34.1,440.2450392,28,13500,10,3,3130,1,37.8638,-122.2519,0.395813327,0.607700838,0.247927029,Berkeley,SINGLE_FAMILY,72
330,"2017 Berkeley Way 10, Berkeley, CA 94704",6001422400,9.170834519,36.5,432.6027369,34,2750,2,1,656,1,37.873074,-122.26998,0.108118554,0.189518155,0.269053643,Berkeley,APARTMENT,66
331,"2030 Bancroft Way, Berkeley, CA",6001422900,9.170834519,59.6,371.7452012,38,3490,2,1,950,3,37.867214,-122.2687,0.105011699,0.305714532,0.554262932,Berkeley,MULTIUNIT,62
332,"2541 Regent St APT 105, Berkeley, CA 94704",6001423602,9.189519339,65.8,242.091266,27,2395,1,1,532,1,37.863716,-122.25728,0.376550826,0.292665741,0.175847993,Berkeley,APARTMENT,73
333,"2030 Bancroft Way, Berkeley, CA",6001422900,9.170834519,59.6,371.7452012,38,3450,2,1,950,3,37.86721,-122.26869,0.105011699,0.305714532,0.554262932,Berkeley,MULTIUNIT,62
334,"2601 College Ave, Berkeley, CA",6001423700,9.032993512,34.1,440.2450392,30,2950,1,1,684,2,37.86355,-122.253365,0.077671375,0.485912122,0.120545974,Berkeley,MULTIUNIT,70
335,"2611 Hillegass Ave APT 5-A, Berkeley, CA 94704",6001423602,9.189519339,65.8,242.091266,26,5100,3,1,1600,1,37.863083,-122.25591,0.282723805,0.33554034,0.253519368,Berkeley,APARTMENT,74
336,"2221 Dwight Way, Berkeley, CA",6001422800,9.189519339,80,143.5907225,32,5200,2,1,1073,2,37.86465,-122.264275,0.229285899,0.877375852,0.383385907,Berkeley,MULTIUNIT,68
337,"2612 Hillegass Ave, Berkeley, CA",6001423602,9.189519339,65.8,242.091266,27,2600,2,1,900,2,37.862873,-122.25665,0.271539127,0.324355662,0.265325417,Berkeley,MULTIUNIT,73
338,"2521 Piedmont Ave, Berkeley, CA",6001423700,9.032993512,34.1,440.2450392,28,2350,1,1,600,4,37.865074,-122.2512,0.305714532,0.698421004,0.338647195,Berkeley,MULTIUNIT,72
339,"2212 Parker St, Berkeley, CA",6001423602,9.189519339,65.8,242.091266,30,9000,6,2,2000,2,37.862278,-122.264175,0.603972612,0.157206863,0.36660889,Berkeley,MULTIUNIT,70
340,"2032 Bancroft Way, Berkeley, CA",6001422900,9.170834519,59.6,371.7452012,38,3725,2,1,750,2,37.86721,-122.268684,0.105011699,0.305714532,0.554262932,Berkeley,MULTIUNIT,62
341,"2005 Berkeley Way, Berkeley, CA",6001422400,9.170834519,36.5,432.6027369,33,2280,1,1,478,2,37.873013,-122.27045,0.293908483,0.392706472,0.207537914,Berkeley,MULTIUNIT,67
342,"2731 Durant Ave, Berkeley, CA",6001422700,9.032993512,68.3,20.92008492,28,1395,1,1,100,10,37.868748,-122.253075,0.398298811,0.926464161,0.597758902,Berkeley,MULTIUNIT,72
343,"1901 Parker St 2, Berkeley, CA 94704",6001423500,9.234587905,38.6,605.423531,31,3650,2,1,789,1,37.86179,-122.271614,0.021747985,0.398298811,0.151614524,Berkeley,APARTMENT,69
344,"2533 Hillegass Ave APT 205, Berkeley, CA 94704",6001423602,9.189519339,65.8,242.091266,26,3699,2,1,1000,1,37.8642,-122.25601,0.179576219,0.393327843,0.276510095,Berkeley,APARTMENT,74
345,"2216 Blake St A, Berkeley, CA 94704",6001423602,9.189519339,65.8,242.091266,30,7000,3,2,1500,1,37.86319,-122.264206,0.672323422,0.225557673,0.434338329,Berkeley,APARTMENT,70
346,"152 Panoramic Way 2, Berkeley, CA 94704",6001422700,9.032993512,68.3,20.92008492,21,6000,5,2,1704,1,37.868263,-122.24637,0.901609321,1.507446046,1.147672237,Berkeley,APARTMENT,79
347,"1930 Haste St APT B, Berkeley, CA 94704",6001422900,9.170834519,59.6,371.7452012,32,2300,1,1,400,1,37.864174,-122.27078,0.489640348,0.388978246,0.487154864,Berkeley,APARTMENT,68
348,"2405 Hillside Ave, Berkeley, CA 94704",6001422700,9.032993512,68.3,20.92008492,26,5500,2,1,1102,1,37.86749,-122.249146,0.419425425,1.080564169,0.72079036,Berkeley,APARTMENT,74
349,"2309 Haste St APT 4, Berkeley, CA 94704",6001422800,9.189519339,80,143.5907225,30,1995,1,1,450,1,37.86568,-122.26284,0.170255654,0.247927029,0.470999218,Berkeley,APARTMENT,70
350,"2637 Regent St APT 204, Berkeley, CA 94704",6001423602,9.189519339,65.8,242.091266,30,2900,2,1,680,1,37.862015,-122.25712,0.239227835,0.195110494,0.336161711,Berkeley,APARTMENT,70
351,"2030 Blake St SUITE B, Berkeley, CA 94704",6001423500,9.234587905,38.6,605.423531,32,5300,3,2,1100,1,37.862644,-122.26842,0.444280265,0.264704046,0.214994366,Berkeley,TOWNHOUSE,68
352,"2435 Haste St 4, Berkeley, CA 94704",6001422800,9.189519339,80,143.5907225,32,2100,0,1,331,1,37.86622,-122.259384,0.461057282,0.44738712,0.488397606,Berkeley,APARTMENT,68
353,"2442 Piedmont Ave APT 2, Berkeley, CA 94704",6001422700,9.032993512,68.3,20.92008492,28,3700,2,1,675,1,37.866344,-122.25205,0.272781869,0.904094805,0.524437124,Berkeley,APARTMENT,72
354,"2444 Carleton St 2, Berkeley, CA 94704",6001423602,9.189519339,65.8,242.091266,30,9000,5,2,1800,1,37.862305,-122.25805,0.300743564,0.178333477,0.192003639,Berkeley,TOWNHOUSE,70
355,"2737 Dwight Way 2739B, Berkeley, CA 94704",6001422700,9.032993512,68.3,20.92008492,28,4700,2,2,950,1,37.866093,-122.252205,0.278374208,0.784791573,0.425017764,Berkeley,APARTMENT,72
356,"2239 Blake St, Berkeley, CA 94704",6001423602,9.189519339,65.8,242.091266,29,14000,8,4,3344,1,37.863853,-122.26321,0.73321778,0.286452031,0.495854058,Berkeley,SINGLE_FAMILY,71
357,"2737 Dwight Way, Berkeley, CA 94704",6001422700,9.032993512,68.3,20.92008492,28,3800,2,1,750,1,37.866085,-122.25219,0.277752837,0.784170202,0.424396393,Berkeley,APARTMENT,72
358,"2214 Channing Way APT 5, Berkeley, CA 94704",6001422800,9.189519339,80,143.5907225,32,3000,2,1,700,1,37.865917,-122.26482,0.047845567,0.253519368,0.232392754,Berkeley,APARTMENT,68
359,"2642 College Ave, Berkeley, CA 94704",6001423602,9.189519339,65.8,242.091266,33,14000,6,3,2716,1,37.862038,-122.253845,0.019883872,0.39767744,0.018019759,Berkeley,SINGLE_FAMILY,67
360,"2541 Dana St 1, Berkeley, CA 94704",6001423602,9.189519339,65.8,242.091266,30,3295,2,1,850,1,37.863354,-122.260155,0.1864113,0.31689921,0.21126614,Berkeley,APARTMENT,70
361,"1931 Dwight Way APT 4, Berkeley, CA 94704",6001422900,9.170834519,59.6,371.7452012,32,1895,1,1,374,1,37.863827,-122.270584,0.328083888,0.162177831,0.260354449,Berkeley,APARTMENT,68
362,"2214 Haste St UNIT 8, Berkeley, CA 94704",6001422800,9.189519339,80,143.5907225,32,3080,2,1,600,1,37.864967,-122.26468,0.405133892,0.454843572,0.16777017,Berkeley,APARTMENT,68
363,"2520 Regent St 6, Berkeley, CA 94704",6001423602,9.189519339,65.8,242.091266,30,9600,6,2,1200,1,37.864483,-122.25795,0.433095587,0.349210502,0.232392754,Berkeley,APARTMENT,70
364,"2741 Dwight Way, Berkeley, CA 94704",6001422700,9.032993512,68.3,20.92008492,28,3095,2,1,700,1,37.8661,-122.25202,0.268432272,0.774849637,0.415075828,Berkeley,APARTMENT,72
365,"1915 Bonita Ave B, Berkeley, CA 94704",6001422400,9.170834519,36.5,432.6027369,33,2100,1,1,380,1,37.872932,-122.27182,0.014291533,0.506417365,0.144779443,Berkeley,APARTMENT,67
366,"2201 Blake St, Berkeley, CA",6001423602,9.189519339,65.8,242.091266,33,3750,2,1,950,2,37.863644,-122.264824,0.331812114,0.196974607,0.406376634,Berkeley,MULTIUNIT,67
367,"2520 Regent St 7, Berkeley, CA 94704",6001423602,9.189519339,65.8,242.091266,30,5250,3,1,550,1,37.86448,-122.25794,0.433095587,0.349210502,0.232392754,Berkeley,APARTMENT,70
368,"2416 Dwight Way APT 1, Berkeley, CA 94704",6001423602,9.189519339,65.8,242.091266,30,2500,1,1,600,1,37.864864,-122.260414,0.0621371,0.654303663,0.320006065,Berkeley,APARTMENT,70
369,"2550 Regent St 6, Berkeley, CA 94704",6001423602,9.189519339,65.8,242.091266,28,8500,5,3,1750,1,37.864067,-122.25769,0.403269779,0.319384694,0.202566946,Berkeley,TOWNHOUSE,72
370,"1926 Channing Way 1/2, Berkeley, CA 94704",6001422900,9.170834519,59.6,371.7452012,31,2295,1,1,540,1,37.86505,-122.271065,0.162177831,0.328083888,0.407619376,Berkeley,APARTMENT,69
371,"2338 Blake St 4, Berkeley, CA 94704",6001423602,9.189519339,65.8,242.091266,29,2199,1,1,525,1,37.863598,-122.261116,0.200702833,0.438687926,0.205673801,Berkeley,APARTMENT,71
372,"2603 Benvenue Ave APT 2, Berkeley, CA 94704",6001423602,9.189519339,65.8,242.091266,27,3850,2,1,1024,1,37.8633,-122.25466,0.13670162,0.433095587,0.179576219,Berkeley,APARTMENT,73
373,"2420 Milvia St B, Berkeley, CA 94704",6001422900,9.170834519,59.6,371.7452012,32,2400,1,1,600,1,37.864735,-122.27014,0.548049222,0.357909696,0.297015338,Berkeley,APARTMENT,68
374,"2017 Berkeley Way, Berkeley, CA 94704",6001422400,9.170834519,36.5,432.6027369,34,3075,2,1,795,1,37.87307,-122.269966,0.107497183,0.188896784,0.269053643,Berkeley,APARTMENT,66
375,"2521 Regent St 20, Berkeley, CA 94704",6001423602,9.189519339,65.8,242.091266,28,2793,2,1,569,1,37.864437,-122.25737,0.427503248,0.343618163,0.226800415,Berkeley,APARTMENT,72
376,"2614 Warring St APT 5, Berkeley, CA 94704",6001423700,9.032993512,34.1,440.2450392,30,3280,2,2,907,1,37.863457,-122.25059,0.033554034,0.723897215,0.342375421,Berkeley,APARTMENT,70
377,"2319-2323 Shattuck Ave 303, Berkeley, CA 94704",6001422900,9.170834519,59.6,371.7452012,39,3650,2,2,900,1,37.867245,-122.267654,0.214994366,0.418182683,0.641254872,Berkeley,APARTMENT,61
378,"2629 Piedmont Ave B, Berkeley, CA 94704",6001423700,9.032993512,34.1,440.2450392,29,2380,1,1,650,1,37.863274,-122.25102,0.195731865,0.594030676,0.214372995,Berkeley,APARTMENT,71
379,"2222 Parker St, Berkeley, CA 94704",6001423602,9.189519339,65.8,242.091266,29,3600,2,1,1100,1,37.86234,-122.2637,0.630691565,0.183304445,0.392706472,Berkeley,SINGLE_FAMILY,71
380,"2710 Haste St, Berkeley, CA",6001422700,9.032993512,68.3,20.92008492,28,1800,0,1,284,3,37.866394,-122.25333,0.18019759,0.730110925,0.613293177,Berkeley,MULTIUNIT,72
381,"1945 Milvia St 20, Berkeley, CA 94704",6001422400,9.170834519,36.5,432.6027369,35,2950,2,1,775,1,37.872494,-122.27045,0.329948001,0.429367361,0.444901636,Berkeley,APARTMENT,65
382,"2710 Haste St APT 5, Berkeley, CA 94704",6001422700,9.032993512,68.3,20.92008492,28,1900,0,1,327,1,37.86639,-122.25331,0.181440332,0.731353667,0.614535919,Berkeley,APARTMENT,72
383,"2708 Haste St APT 6, Berkeley, CA 94704",6001422700,9.032993512,68.3,20.92008492,28,1900,0,1,317,1,37.86637,-122.253494,0.171498396,0.721411731,0.604593983,Berkeley,APARTMENT,72
384,"2500 Martin Luther King Jr Way APT 204, Berkeley, CA 94704",6001423400,9.145700959,26.1,742.2529583,32,3250,2,2,1000,1,37.862885,-122.27253,0.265946788,0.359152438,0.239849206,Berkeley,APARTMENT,68
385,"2125 Parker St, Berkeley, CA 94704",6001423500,9.234587905,38.6,605.423531,33,11200,5,4,2748,1,37.862606,-122.26584,0.506417365,0.170877025,0.276510095,Berkeley,SINGLE_FAMILY,67
386,"2507 Ellsworth St, Berkeley, CA",6001423602,9.189519339,65.8,242.091266,30,1850,0,1,400,2,37.864197,-122.2626,0.787898428,0.346103647,0.307578645,Berkeley,MULTIUNIT,70
387,"2308 Dwight Way, Berkeley, CA 94704",6001423602,9.189519339,65.8,242.091266,31,1850,1,1,475,1,37.8644,-122.2625,0.44738712,0.784791573,0.437445184,Berkeley,APARTMENT,69
388,"2309 Haste St, Berkeley, CA 94704",6001422800,9.189519339,80,143.5907225,30,2095,1,1,500,1,37.865677,-122.262825,0.170255654,0.247927029,0.470999218,Berkeley,APARTMENT,70
389,"2636 Warring St, Berkeley, CA",6001423700,9.032993512,34.1,440.2450392,29,2400,1,1,575,5,37.862762,-122.250496,0.046602825,0.675430277,0.293908483,Berkeley,MULTIUNIT,71
390,"2223-2225 Dwight Way, Berkeley, CA",6001423500,9.234587905,38.6,605.423531,32,1995,1,1,2000,2,37.863697,-122.26948,0.431852845,0.108739925,0.202566946,Berkeley,MULTIUNIT,68
391,"2121-2123 Blake St, Berkeley, CA 94704",6001423602,9.189519339,65.8,242.091266,34,1975,1,1,370,1,37.864105,-122.25934,0.209402027,0.313170984,0.080156859,Berkeley,APARTMENT,66
392,"2438 Martin Luther King Jr Way, Berkeley, CA 94704",6001423000,9.170834519,21.9,836.1608147,33,4850,2,2,950,1,37.863857,-122.272446,0.118681861,0.280238321,0.290180257,Berkeley,SINGLE_FAMILY,67
393,"1940-1942 Haste St, Berkeley, CA",6001422900,9.170834519,59.6,371.7452012,32,3195,2,1,799,2,37.86434,-122.270325,0.51573793,0.415075828,0.513252446,Berkeley,MULTIUNIT,68
394,"2409 College Ave 13, Berkeley, CA 94704",6001422700,9.032993512,68.3,20.92008492,27,2495,2,1,800,1,37.867172,-122.25384,0.18019759,0.730110925,0.370337116,Berkeley,APARTMENT,73
395,"2467 Warring St, Berkeley, CA",6001422700,9.032993512,68.3,20.92008492,29,3400,2,1,800,7,37.86613,-122.25012,0.224936302,0.856870609,0.477212928,Berkeley,MULTIUNIT,71
396,"2530 Hillegass Ave, Berkeley, CA",6001423602,9.189519339,65.8,242.091266,27,1850,0,1,353,3,37.864315,-122.25675,0.488397606,0.404512521,0.287073402,Berkeley,MULTIUNIT,73
397,"1942 Channing Way, Berkeley, CA 94704",6001422900,9.170834519,59.6,371.7452012,31,2695,2,1,683,1,37.86517,-122.270164,0.452358088,0.390220988,0.32932663,Berkeley,APARTMENT,69
398,"2301 Durant Ave, Berkeley, CA",6001422800,9.189519339,80,143.5907225,32,1650,4,1,860,4,37.86738,-122.26332,0.031689921,0.470377847,0.371579858,Berkeley,MULTIUNIT,68
399,"2109 Kala Bagai Way, Berkeley, CA 94704",6001422900,9.170834519,59.6,371.7452012,36,1695,1,1,350,1,37.871166,-122.26734,0.129245168,0.098797989,0.204431059,Berkeley,APARTMENT,64
400,"2631 Durant Ave, Berkeley, CA",6001422800,9.189519339,80,143.5907225,29,1638,0,1,330,6,37.868534,-122.255325,0.277752837,0.661760115,0.449251233,Berkeley,MULTIUNIT,71
401,"2606 Benvenue Ave, Berkeley, CA 94704",6001423602,9.189519339,65.8,242.091266,26,2595,1,1,628,1,37.863224,-122.255356,0.175226622,0.395191956,0.177712106,Berkeley,APARTMENT,74
402,"3001 Telegraph Ave, Berkeley, CA",6001423902,9.192137242,14.1,655.2322359,34,3695,2,2,911,13,37.85593,-122.25938,0.282723805,0.083885085,0.139187104,Berkeley,MULTIUNIT,66
403,"2701 Shattuck Ave, Berkeley, CA",6001423500,9.234587905,38.6,605.423531,36,1995,0,1,291,11,37.860035,-122.26662,0.203188317,0.193867752,0.266568159,Berkeley,MULTIUNIT,64
404,"2740 College Ave, Berkeley, CA",6001423601,9.192137242,19.4,705.5785975,30,2795,2,1,550,11,37.86038,-122.25374,0.157828234,0.477834299,0.096312505,Berkeley,MULTIUNIT,70
405,"2708 College Ave, Berkeley, CA 94705",6001423601,9.192137242,19.4,705.5785975,32,2195,1,1,502,1,37.86135,-122.25383,0.157206863,0.408862118,0.027340324,Berkeley,APARTMENT,68
406,"2828 College Ave, Berkeley, CA",6001423601,9.192137242,19.4,705.5785975,30,2295,1,1,520,4,37.85887,-122.25337,0.164041944,0.374686713,0.153478637,Berkeley,MULTIUNIT,70
407,"2910 Wheeler St, Berkeley, CA 94705",6001423500,9.234587905,38.6,605.423531,30,2595,2,1,689,1,37.85654,-122.26503,0.259111707,0.684750842,0.390842359,Berkeley,APARTMENT,70
408,"2227 Derby St, Berkeley, CA",6001423602,9.189519339,65.8,242.091266,31,2295,1,1,700,3,37.861103,-122.26325,0.298879451,0.194489123,0.544320996,Berkeley,MULTIUNIT,69
409,"2715 Benvenue Ave SUITE 4, Berkeley, CA 94705",6001423601,9.192137242,19.4,705.5785975,30,3400,2,1,800,1,37.861187,-122.25435,0.022369356,0.352317357,0.107497183,Berkeley,APARTMENT,70
410,"2715 Benvenue Ave APT 5, Berkeley, CA 94705",6001423601,9.192137242,19.4,705.5785975,30,2400,1,1,700,1,37.861183,-122.25434,0.022369356,0.352938728,0.107497183,Berkeley,APARTMENT,70
411,"2305 Howe St, Berkeley, CA 94705",6001423601,9.192137242,19.4,705.5785975,30,5495,3,2,1750,1,37.857098,-122.26109,0.094448392,0.28583066,0.231150012,Berkeley,SINGLE_FAMILY,70
412,"2501 Ashby Ave, Berkeley, CA",6001423601,9.192137242,19.4,705.5785975,31,3195,2,1,1100,2,37.85676,-122.25662,0.426260506,0.054059277,0.167148799,Berkeley,MULTIUNIT,69
413,"3125 College Ave 9, Berkeley, CA 94705",6001423800,9.083414338,8.3,752.6207468,28,1695,0,1,270,1,37.852947,-122.252335,0.380900423,0.589681079,0.152235895,Berkeley,APARTMENT,72
414,"3030 Regent St, Berkeley, CA",6001423902,9.192137242,14.1,655.2322359,27,2100,1,1,410,2,37.854347,-122.256676,0.390842359,0.32311292,0.458571798,Berkeley,MULTIUNIT,73
415,"2160 Ashby Ave 2160, Berkeley, CA 94705",6001423901,9.254948457,27,1032.650686,33,2300,1,1,750,1,37.855328,-122.264,0.166527428,0.574768175,0.256004852,Berkeley,APARTMENT,67
416,"2321 Webster St, Berkeley, CA",6001423902,9.192137242,14.1,655.2322359,32,2195,2,1,705,3,37.855324,-122.261375,0.088234682,0.145400814,0.093827021,Berkeley,MULTIUNIT,68
417,"3028 Colby St, Berkeley, CA 94705",6001423902,9.192137242,14.1,655.2322359,30,4500,3,2,1250,1,37.854443,-122.25781,0.315656468,0.036660889,0.202566946,Berkeley,APARTMENT,70
418,"2210 Ward St APT C, Berkeley, CA 94705",6001423601,9.192137242,19.4,705.5785975,29,2150,1,1,526,1,37.85972,-122.26394,0.259111707,0.202566946,0.359152438,Berkeley,APARTMENT,71
419,"2140 Woolsey St APT A, Berkeley, CA 94705",6001423901,9.254948457,27,1032.650686,29,4400,3,2,1482,1,37.852337,-122.26436,0.187654042,0.608322209,0.188896784,Berkeley,APARTMENT,71
420,"2325 Woolsey St, Berkeley, CA",6001423902,9.192137242,14.1,655.2322359,32,1850,1,1,460,2,37.85313,-122.26058,0.135458878,0.090098795,0.203188317,Berkeley,MULTIUNIT,68
421,"2321 Webster St 5, Berkeley, CA 94705",6001423902,9.192137242,14.1,655.2322359,32,3195,3,2,925,1,37.855328,-122.26138,0.088856053,0.146022185,0.093827021,Berkeley,APARTMENT,68
422,"2832 Derby St 2832, Berkeley, CA 94705",6001423700,9.032993512,34.1,440.2450392,28,13995,6,3,1543,1,37.862118,-122.24969,0.179576219,0.666731083,0.285209289,Berkeley,APARTMENT,72
423,"3001 College Ave APT E, Berkeley, CA 94705",6001423800,9.083414338,8.3,752.6207468,31,2695,2,1,730,1,37.855495,-122.25258,0.400162924,0.766150443,0.135458878,Berkeley,APARTMENT,69
424,"2817 College Ave APT 1, Berkeley, CA 94705",6001423700,9.032993512,34.1,440.2450392,31,1995,0,1,300,1,37.859135,-122.25293,0.147886298,0.390842359,0.169634283,Berkeley,APARTMENT,69
425,"22 Domingo Ave, Berkeley, CA",6001423800,9.083414338,8.3,752.6207468,30,2795,1,1,725,2,37.857567,-122.24412,0.138565733,1.222858128,0.052816535,Berkeley,MULTIUNIT,70
426,"2715 Benvenue Ave, Berkeley, CA 94705",6001423601,9.192137242,19.4,705.5785975,30,2400,1,1,700,1,37.861183,-122.25433,0.022369356,0.352938728,0.107497183,Berkeley,APARTMENT,70
427,"2716 Webster St 4, Berkeley, CA 94705",6001423800,9.083414338,8.3,752.6207468,30,2995,2,1,850,1,37.85555,-122.25211,0.413833086,0.83263714,0.149750411,Berkeley,APARTMENT,70
428,"3208 Shattuck Ave A, Berkeley, CA 94705",6001400500,9.369731128,21.9,862.26686,36,2200,1,1,500,1,37.851948,-122.266365,0.154100008,0.310064129,0.055302019,Berkeley,APARTMENT,64
429,"2407 Dowling Pl 1-4, Berkeley, CA 94705",6001423902,9.192137242,14.1,655.2322359,32,3300,3,1,900,1,37.854668,-122.2594,0.113089522,0.182683074,0.103147586,Berkeley,APARTMENT,68
430,"2201 Derby St APT 3, Berkeley, CA 94705",6001423602,9.189519339,65.8,242.091266,31,2800,1,1,876,1,37.86084,-122.26428,0.331812114,0.136080249,0.406998005,Berkeley,APARTMENT,69
431,"2119 Russell St C-D, Berkeley, CA 94705",6001423500,9.234587905,38.6,605.423531,33,2700,2,1,750,1,37.857075,-122.26612,0.160313718,0.431852845,0.11806049,Berkeley,APARTMENT,67
432,"2919 Fulton St, Berkeley, CA 94705",6001423601,9.192137242,19.4,705.5785975,31,5150,3,2,1800,1,37.856457,-122.26328,0.409483489,0.56544761,0.498960913,Berkeley,SINGLE_FAMILY,69
433,"2732 College Ave 1, Berkeley, CA 94705",6001423601,9.192137242,19.4,705.5785975,30,4650,2,1,966,1,37.86066,-122.25377,0.176469364,0.459193169,0.078292746,Berkeley,APARTMENT,70
434,"2226 Derby St, Berkeley, CA 94705",6001423601,9.192137242,19.4,705.5785975,30,2595,2,1,720,1,37.860573,-122.263145,0.27340324,0.193867752,0.465406879,Berkeley,APARTMENT,70
435,"2737 Forest Ave 402, Berkeley, CA 94705",6001423700,9.032993512,34.1,440.2450392,29,2650,1,1,600,1,37.86171,-122.251816,0.03728226,0.502067768,0.120545974,Berkeley,APARTMENT,71
436,"2327 Prince St APT 12, Berkeley, CA 94705",6001423902,9.192137242,14.1,655.2322359,32,2850,2,1,900,1,37.854027,-122.260635,0.269675014,0.239227835,0.132973394,Berkeley,APARTMENT,68
437,"2112 Ashby Ave APT D, Berkeley, CA 94705",6001423901,9.254948457,27,1032.650686,34,1950,1,1,650,1,37.855152,-122.26574,0.119924603,0.522573011,0.251655255,Berkeley,APARTMENT,66
438,"2805 Fulton St, Berkeley, CA 94705",6001423601,9.192137242,19.4,705.5785975,30,1850,0,1,320,1,37.858677,-122.263855,0.227421786,0.272781869,0.291422999,Berkeley,APARTMENT,70
439,"2712 Derby St, Berkeley, CA",6001423700,9.032993512,34.1,440.2450392,30,2549,1,1,755,2,37.86192,-122.25294,0.052816535,0.435581071,0.05592339,Berkeley,MULTIUNIT,70
440,"2110 Ashby Ave 5, Berkeley, CA 94705",6001423901,9.254948457,27,1032.650686,34,1780,1,1,600,1,37.855125,-122.26592,0.109982667,0.512631075,0.241713319,Berkeley,APARTMENT,66
441,"2233 Derby St, Berkeley, CA 94705",6001423602,9.189519339,65.8,242.091266,30,4500,3,2,1400,1,37.861126,-122.263084,0.289558886,0.203809688,0.55302019,Berkeley,APARTMENT,70
442,"7020 Westmoorland Dr, Berkeley, CA 94705",6001400100,8.953297225,10.4,965.9461667,25,8500,4,4,3816,1,37.859184,-122.22423,0.731975038,3.32433485,2.212702131,Berkeley,SINGLE_FAMILY,75
443,"2335 Russell St APT G, Berkeley, CA 94705",6001423601,9.192137242,19.4,705.5785975,30,2695,2,1,720,1,37.85786,-122.26009,0.157206863,0.123031458,0.341132679,Berkeley,APARTMENT,70
444,"2341 Howe St, Berkeley, CA 94705",6001423601,9.192137242,19.4,705.5785975,32,4350,2,2,1212,1,37.856976,-122.260666,0.116196377,0.08077823,0.209402027,Berkeley,APARTMENT,68
445,"7153 Buckingham Blvd, Berkeley, CA 94705",6001400100,8.953297225,10.4,965.9461667,25,1995,1,1,450,1,37.860603,-122.22195,0.305714532,3.590281638,2.420240045,Berkeley,APARTMENT,75
446,"2335 Russell St C, Berkeley, CA 94705",6001423601,9.192137242,19.4,705.5785975,30,2695,2,1,720,1,37.857864,-122.26011,0.156585492,0.123031458,0.341132679,Berkeley,APARTMENT,70
447,"2918 Benvenue Ave APT 1, Berkeley, CA 94705",6001423601,9.192137242,19.4,705.5785975,31,2795,1,1,635,1,37.857597,-122.25473,0.223072189,0.233014125,0.327462517,Berkeley,APARTMENT,69
448,"2325 Russell St A, Berkeley, CA 94705",6001423601,9.192137242,19.4,705.5785975,29,3850,3,1,900,1,37.857815,-122.26044,0.097555247,0.288937515,0.235499609,Berkeley,APARTMENT,71
449,"3011 Shattuck Ave 2, Berkeley, CA 94705",6001423901,9.254948457,27,1032.650686,35,2335,3,1,775,1,37.85485,-122.266136,0.11184678,0.449872604,0.243577432,Berkeley,APARTMENT,65
450,"2311 Stuart St, Berkeley, CA 94705",6001423601,9.192137242,19.4,705.5785975,28,10000,7,3,2850,1,37.859535,-122.26126,0.070836294,0.275888724,0.425017764,Berkeley,SINGLE_FAMILY,72
451,"3000 Claremont Ave 2, Berkeley, CA 94705",6001423800,9.083414338,8.3,752.6207468,32,2950,1,1,800,1,37.85592,-122.24731,0.115575006,0.92584279,0.109361296,Berkeley,APARTMENT,68
452,"1029 Amito Ave, Berkeley, CA 94705",6001400100,8.953297225,10.4,965.9461667,19,8700,5,5,3854,1,37.860912,-122.23378,0.293908483,2.670031187,1.558398468,Berkeley,SINGLE_FAMILY,81
453,"2918 Benvenue Ave APT 2, Berkeley, CA 94705",6001423601,9.192137242,19.4,705.5785975,31,2695,1,1,635,1,37.85759,-122.254715,0.22369356,0.232392754,0.328083888,Berkeley,APARTMENT,69
454,"2732 Benvenue Ave, Berkeley, CA",6001423601,9.192137242,19.4,705.5785975,28,1995,1,1,350,3,37.860455,-122.25499,0.02485484,0.400162924,0.15534275,Berkeley,MULTIUNIT,72
455,"2801 College Ave APT 10, Berkeley, CA 94705",6001423700,9.032993512,34.1,440.2450392,30,1995,1,1,470,1,37.859684,-122.25303,0.113089522,0.485912122,0.150993153,Berkeley,APARTMENT,70
456,"2803 Telegraph Ave, Berkeley, CA 94705",6001423601,9.192137242,19.4,705.5785975,32,6100,5,2,1330,1,37.859436,-122.25884,0.049088309,0.101283473,0.342375421,Berkeley,APARTMENT,68
457,"2819 Derby St APT 302, Berkeley, CA 94705",6001423700,9.032993512,34.1,440.2450392,29,5750,3,2,1200,1,37.86245,-122.25047,0.095691134,0.626341968,0.244820174,Berkeley,APARTMENT,71
458,"2942 Hillegass Ave APT 1, Berkeley, CA 94705",6001423902,9.192137242,14.1,655.2322359,32,3890,2,1,920,1,37.85645,-122.255646,0.352938728,0.129245168,0.1242742,Berkeley,APARTMENT,68
459,"2821 Hillegass Ave, Berkeley, CA 94705",6001423601,9.192137242,19.4,705.5785975,27,4295,3,1,920,1,37.85923,-122.255325,0.175226622,0.286452031,0.281481063,Berkeley,APARTMENT,73
460,"1260 Brighton Ave, Albany, CA",6001420100,9.026342124,10.3,255.583202,27,2000,1,1,600,2,37.89745,-122.29505,0.075185891,0.349210502,0.427503248,Albany,MULTIUNIT,73
461,"820 Kains Ave, Albany, CA 94706",6001420200,9.026342124,16.5,556.3819469,31,2800,2,2,900,1,37.891224,-122.29852,0.192003639,0.421910909,0.243577432,Albany,APARTMENT,69
462,"409 Evelyn Ave, Albany, CA",6001420200,9.026342124,16.5,556.3819469,28,2100,0,1,565,3,37.89841,-122.29646,0.28583066,0.143536701,0.225557673,Albany,MULTIUNIT,72
463,"928 Adams St, Albany, CA 94706",6001420300,9.063080675,23.2,2097.780325,33,2695,2,1,750,1,37.889084,-122.299866,0.091341537,0.580981885,0.246062916,Albany,APARTMENT,67
464,"1012 Ramona Ave, Albany, CA 94706",6001420600,9.047115485,6.2,352.6814509,26,4200,2,1,1200,1,37.88747,-122.29006,0.175226622,0.381521794,0.331190743,Albany,SINGLE_FAMILY,74
465,"935 Solano Ave APT 6, Albany, CA 94706",6001420300,9.063080675,23.2,2097.780325,32,1795,0,1,433,1,37.890045,-122.301414,0.060894358,0.428124619,0.257868965,Albany,APARTMENT,68
466,"1238 Evelyn Ave, Berkeley, CA 94706",6001421900,9.084806909,14.5,556.97488,30,3799,2,2,1004,1,37.88186,-122.29195,0.178954848,0.705877456,0.203188317,Berkeley,SINGLE_FAMILY,70
467,"1006 Santa Fe Ave, Albany, CA 94706",6001420600,9.047115485,6.2,352.6814509,28,5300,3,2,1546,1,37.8879,-122.28887,0.039767744,0.257247594,0.235499609,Albany,SINGLE_FAMILY,72
468,"545 Pierce St APT 2207, Albany, CA 94706",6001420300,9.063080675,23.2,2097.780325,34,3050,2,2,1234,1,37.895885,-122.30797,1.370123055,1.092991589,0.252276626,Albany,APARTMENT,66
469,"1494 Solano Ave APT 9, Albany, CA 94706",6001420600,9.047115485,6.2,352.6814509,28,2295,2,1,592,1,37.890556,-122.288086,0.210644769,0.006835081,0.041010486,Albany,APARTMENT,72
470,"1494 Solano Ave 11, Albany, CA 94706",6001420600,9.047115485,6.2,352.6814509,28,1795,1,1,366,1,37.890587,-122.2881,0.152857266,0.007456452,0.041631857,Albany,APARTMENT,72
471,"411 Stannage Ave APT 10, Albany, CA 94706",6001420200,9.026342124,16.5,556.3819469,28,2000,2,1,800,1,37.897808,-122.2992,0.214994366,0.256004852,0.266568159,Albany,APARTMENT,72
472,"555 Pierce St, Albany, CA",6001420300,9.063080675,23.2,2097.780325,33,2700,2,2,1040,2,37.894615,-122.306526,1.005999649,1.207945224,0.36660889,Albany,MULTIUNIT,67
473,"527 Key Route Blvd, Albany, CA 94706",6001420100,9.026342124,10.3,255.583202,25,4650,3,2,1250,1,37.897392,-122.29229,0.44738712,0.415697199,0.610807693,Albany,SINGLE_FAMILY,75
474,"1007 Evelyn Ave, Albany, CA 94706",6001420500,9.047115485,14.7,691.4273081,32,4900,3,1,1068,1,37.88724,-122.29323,0.172741138,0.328083888,0.491504461,Albany,SINGLE_FAMILY,68
475,"415 Cornell Ave APT 304, Albany, CA 94706",6001420200,9.026342124,16.5,556.3819469,28,3149,2,2,986,1,37.897797,-122.29832,0.15534275,0.124895571,0.114953635,Albany,APARTMENT,72
476,"937 Pierce St, Albany, CA 94706",6001420300,9.063080675,23.2,2097.780325,33,4475,3,2,950,1,37.887627,-122.3052,0.15534275,0.507660107,0.457950427,Albany,SINGLE_FAMILY,67
477,"1213 San Pablo Ave, Berkeley, CA 94706",6001421900,9.084806909,14.5,556.97488,34,1850,1,1,400,1,37.88185,-122.29589,0.167148799,0.421289538,0.091341537,Berkeley,APARTMENT,66
478,"716 Gateview Ave 2, Albany, CA 94706",6001420300,9.063080675,23.2,2097.780325,33,3150,3,1,1000,1,37.891644,-122.305984,0.456707685,0.915279483,0.533136318,Albany,APARTMENT,67
479,"1145 Washington Ave APT 3, Albany, CA 94706",6001420200,9.026342124,16.5,556.3819469,30,2800,2,1,900,1,37.89247,-122.29741,0.246684287,0.54680648,0.131730652,Albany,APARTMENT,70
480,"1105 Evelyn Ave, Albany, CA 94706",6001420500,9.047115485,14.7,691.4273081,30,2690,1,1,717,1,37.884514,-122.29227,0.21126614,0.523815753,0.378414939,Albany,SINGLE_FAMILY,70
481,"605 San Pablo Ave APT C, Albany, CA 94706",6001420200,9.026342124,16.5,556.3819469,33,1900,1,1,600,1,37.89487,-122.30006,0.228664528,0.22990727,0.11806049,Albany,APARTMENT,67
482,"822 Cornell Ave, Albany, CA 94706",6001420200,9.026342124,16.5,556.3819469,29,3475,2,1,829,1,37.891533,-122.29684,0.276510095,0.516359301,0.215615737,Albany,SINGLE_FAMILY,71
483,"407 Cornell Ave 12, Albany, CA 94706",6001420200,9.026342124,16.5,556.3819469,27,2899,2,2,950,1,37.898167,-122.29842,0.181440332,0.098797989,0.088856053,Albany,APARTMENT,73
484,"1079 San Pablo Ave APT 3, Albany, CA 94706",6001420500,9.047115485,14.7,691.4273081,31,1700,1,1,512,1,37.88417,-122.29663,0,0.275888724,0.123031458,Albany,APARTMENT,69
485,"1389 Solano Ave, Albany, CA 94706",6001420100,9.026342124,10.3,255.583202,29,4440,0,1,800,1,37.890926,-122.29053,0.208780656,0.137322991,0.172119767,Albany,APARTMENT,71
486,"816 Arlington Ave, Berkeley, CA 94707",6001421200,8.87757282,3.5,169.1790501,27,9100,6,3,3500,1,37.894314,-122.275215,0.768635927,1.012213359,0.858734722,Berkeley,APARTMENT,73
487,"325 Berkeley Park Blvd, Kensington, CA 94707",6013391000,8.912586005,7.8,291.1017365,24,1800,0,1,360,1,37.900383,-122.2864,0.103147586,0.997300455,0.113710893,Kensington,APARTMENT,76
488,"64 Norwood Ave, Kensington, CA 94707",6013391000,8.912586005,7.8,291.1017365,23,5200,4,3,2100,1,37.91136,-122.28235,0.243577432,2.57247594,0.725761328,Kensington,SINGLE_FAMILY,77
489,"1641 San Lorenzo Ave, Berkeley, CA 94707",6001421300,8.991356734,5.8,283.2479183,24,3975,2,1,1000,1,37.89303,-122.284904,0.122410087,0.334918969,0.247927029,Berkeley,SINGLE_FAMILY,76
490,"29 Edgecroft Rd, Kensington, CA 94707",6013391000,8.912586005,7.8,291.1017365,26,2850,1,1,500,1,37.901722,-122.277596,0.814617381,2.090913415,0.411347602,Kensington,APARTMENT,74
491,"32 Kenilworth Dr B, Berkeley, CA 94707",6013392000,8.854952577,7.7,251.625071,23,3250,5,4,3504,1,37.91557,-122.28229,0.270917756,1.739217429,1.12468151,Berkeley,MULTI_FAMILY,77
492,"919 The Alameda UNIT 6, Berkeley, CA 94707",6001421200,8.87757282,3.5,169.1790501,28,840,0,0,112,1,37.891033,-122.27657,0.072079036,0.339268566,0.126138313,Berkeley,APARTMENT,72
493,"220 1/2 Willamette Ave, Berkeley, CA 94708",6013392000,8.854952577,7.7,251.625071,21,5500,4,4,2500,1,37.90953,-122.27572,0.059030245,2.605408603,0.926464161,Berkeley,SINGLE_FAMILY,79
494,"1432 Arch St APT F, Berkeley, CA 94708",6001421600,8.997829238,9.1,158.2547359,26,6595,4,3,1000,1,37.88141,-122.26522,0.305714532,0.905958918,0.45981454,Berkeley,APARTMENT,74
495,"1515 Olympus Ave UNIT B, Berkeley, CA 94708",6001421600,8.997829238,9.1,158.2547359,21,2100,0,1,600,1,37.882107,-122.250786,0.457950427,2.116389626,1.532300886,Berkeley,APARTMENT,79
496,"1565 Arch St, Berkeley, CA",6001421600,8.997829238,9.1,158.2547359,27,1100,2,1,130,3,37.879555,-122.26432,0.1242742,0.774228266,0.308821387,Berkeley,MULTIUNIT,73
497,"1169 Euclid Ave APT 3, Berkeley, CA 94708",6001421500,8.812063993,8.7,131.7513488,24,1995,1,1,380,1,37.88736,-122.261955,0.531893576,1.571447259,0.93827021,Berkeley,APARTMENT,76
498,"1168 Miller Ave A, Berkeley, CA 94708",6001421500,8.812063993,8.7,131.7513488,26,2800,1,1,600,1,37.89007,-122.25468,0.120545974,2.249984391,1.666517022,Berkeley,APARTMENT,74
499,"204 Kenyon Ave, Kensington, CA 94708",6013392000,8.854952577,7.7,251.625071,24,4595,2,2,1400,1,37.909138,-122.277,0.027961695,2.543892874,0.67729439,Kensington,APARTMENT,76
500,"2374 Eunice St, Berkeley, CA 94708",6001421600,8.997829238,9.1,158.2547359,24,6000,4,3,2591,1,37.8862,-122.263664,0.342375421,1.336569021,0.748752055,Berkeley,SINGLE_FAMILY,76
501,"1181 Euclid Ave, Berkeley, CA 94708",6001421500,8.812063993,8.7,131.7513488,25,8200,6,3,3200,1,37.887417,-122.26234,0.470377847,1.50993153,0.876754481,Berkeley,SINGLE_FAMILY,75
502,"1525 Arch St APT 7, Berkeley, CA 94708",6001421600,8.997829238,9.1,158.2547359,26,3199,2,1,900,1,37.879875,-122.26437,0.146643556,0.795976251,0.331190743,Berkeley,APARTMENT,74
503,"257 Trinity Ave, Kensington, CA 94708",6013392000,8.854952577,7.7,251.625071,23,4100,3,2,1377,1,37.907116,-122.27453,0.102526215,2.433910207,0.613914548,Kensington,SINGLE_FAMILY,77
504,"2369 Le Conte Ave 7, Berkeley, CA 94709",6001422500,9.125129571,45.2,311.5803925,28,2895,1,1,422,1,37.87589,-122.26324,0.061515729,0.561098013,0.536243173,Berkeley,APARTMENT,72
505,"2120 Delaware St APT 7, Berkeley, CA 94709",6001422400,9.170834519,36.5,432.6027369,34,3095,2,1,600,1,37.8746,-122.26811,0.13670162,0.270917756,0.305714532,Berkeley,APARTMENT,66
506,"2005 Lincoln St D, Berkeley, CA 94709",6001422400,9.170834519,36.5,432.6027369,31,3950,3,1,850,1,37.877525,-122.27103,0.127381055,0.710227053,0.147886298,Berkeley,APARTMENT,69
507,"2363 Le Conte Ave, Berkeley, CA",6001422500,9.125129571,45.2,311.5803925,27,3995,2,1,750,2,37.875732,-122.2631,0.052195164,0.530650834,0.526922608,Berkeley,MULTIUNIT,73
508,"1856 Spruce St, Berkeley, CA",6001422400,9.170834519,36.5,432.6027369,30,2395,0,1,400,11,37.874565,-122.2657,0.098176618,0.37903631,0.518844785,Berkeley,MULTIUNIT,70
509,"1729 Arch St, Berkeley, CA",6001422500,9.125129571,45.2,311.5803925,28,4295,2,1,809,2,37.876976,-122.264046,0.026718953,0.716440763,0.439930668,Berkeley,MULTIUNIT,72
510,"1717 Oxford St 209, Berkeley, CA 94709",6001422400,9.170834519,36.5,432.6027369,30,3350,2,1,750,1,37.876595,-122.26629,0.252276626,0.471620589,0.295772596,Berkeley,APARTMENT,70
511,"1865 Euclid Ave, Berkeley, CA",6001422500,9.125129571,45.2,311.5803925,27,3750,2,1,537,6,37.87534,-122.25997,0.09320565,0.660517373,0.241091948,Berkeley,MULTIUNIT,73
512,"2427 Hilgard Ave APT 16, Berkeley, CA 94709",6001422500,9.125129571,45.2,311.5803925,26,2250,0,1,514,1,37.878704,-122.26231,0.17398388,0.8077823,0.547427851,Berkeley,APARTMENT,74
513,"1799 Euclid Ave, Berkeley, CA",6001422500,9.125129571,45.2,311.5803925,28,2395,0,1,500,3,37.87631,-122.26006,0.061515729,0.731975038,0.270917756,Berkeley,MULTIUNIT,72
514,"1406 Henry St, Berkeley, CA 94709",6001421700,9.073840161,24.2,188.8821877,31,2395,1,1,700,1,37.881336,-122.27111,0.193246381,0.945726662,0.044738712,Berkeley,APARTMENT,69
515,"2025 Francisco St, Berkeley, CA",6001422400,9.170834519,36.5,432.6027369,34,2895,2,1,623,3,37.8758,-122.27008,0.022990727,0.364123406,0.286452031,Berkeley,MULTIUNIT,66
516,"1771 Highland Pl, Berkeley, CA",6001422500,9.125129571,45.2,311.5803925,20,4395,2,1,763,5,37.87668,-122.25538,0.771742782,1.34216136,0.468513734,Berkeley,MULTIUNIT,80
517,"1332 Shattuck Ave APT 10, Berkeley, CA 94709",6001421700,9.073840161,24.2,188.8821877,31,2395,0,1,400,1,37.882656,-122.26991,0.144158072,0.784791573,0.170877025,Berkeley,APARTMENT,69
518,"1800 Spruce St, Berkeley, CA 94709",6001422400,9.170834519,36.5,432.6027369,30,2495,1,1,675,1,37.875042,-122.2657,0.129866539,0.410726231,0.477834299,Berkeley,APARTMENT,70
519,"2119 Hearst Ave, Berkeley, CA",6001422400,9.170834519,36.5,432.6027369,34,2095,0,1,570,2,37.87424,-122.26804,0.27961695,0.206916543,0.375929455,Berkeley,MULTIUNIT,66
520,"1709 Shattuck Ave, Berkeley, CA",6001422400,9.170834519,36.5,432.6027369,35,1305,0,1,450,28,37.876152,-122.26846,0.084506456,0.426881877,0.210023398,Berkeley,MULTIUNIT,65
521,"2255 Hearst Ave, Berkeley, CA",6001422500,9.125129571,45.2,311.5803925,29,2150,1,1,400,13,37.874573,-122.26513,0.091341537,0.372201229,0.512009704,Berkeley,MULTIUNIT,71
522,"1725 Oxford St, Berkeley, CA",6001422400,9.170834519,36.5,432.6027369,30,2050,0,1,500,8,37.87633,-122.26625,0.270917756,0.452979459,0.314413726,Berkeley,MULTIUNIT,70
523,"2511 Hearst Ave 109, Berkeley, CA 94709",6001422500,9.125129571,45.2,311.5803925,26,1800,0,1,430,1,37.875427,-122.25958,0.134216136,0.707120198,0.199460091,Berkeley,APARTMENT,74
524,"2225 Hearst Ave, Berkeley, CA",6001422400,9.170834519,36.5,432.6027369,31,1140,1,1,79,19,37.874382,-122.26578,0.052816535,0.333676227,0.473484702,Berkeley,MULTIUNIT,69
525,"1650 Oxford St, Berkeley, CA",6001422400,9.170834519,36.5,432.6027369,30,2095,0,1,656,2,37.877785,-122.26709,0.09941936,0.553641561,0.210644769,Berkeley,MULTIUNIT,70
526,"1786 Spruce St, Berkeley, CA",6001422400,9.170834519,36.5,432.6027369,29,2095,1,1,535,5,37.875336,-122.265785,0.151614524,0.432474216,0.454222201,Berkeley,MULTIUNIT,71
527,"1541 Oxford St, Berkeley, CA",6001421700,9.073840161,24.2,188.8821877,29,2350,1,1,550,3,37.879276,-122.266594,0.07456452,0.654303663,0.185168558,Berkeley,MULTIUNIT,71
528,"1385 Shattuck Ave 111, Berkeley, CA 94709",6001421700,9.073840161,24.2,188.8821877,33,2645,2,2,776,1,37.88232,-122.26924,0.105011699,0.772985524,0.158449605,Berkeley,APARTMENT,67
529,"1770 La Loma Ave, Berkeley, CA",6001422500,9.125129571,45.2,311.5803925,22,995,1,1,70,15,37.876698,-122.25725,0.347346389,0.934541984,0.123031458,Berkeley,MULTIUNIT,78
530,"1780 Leroy Ave, Berkeley, CA",6001422500,9.125129571,45.2,311.5803925,23,4395,3,1,1000,3,37.87656,-122.25857,0.165284686,0.836986737,0.207537914,Berkeley,MULTIUNIT,77
531,"1708 Euclid Ave, Berkeley, CA",6001422500,9.125129571,45.2,311.5803925,28,3299,2,1,650,2,37.877403,-122.26089,0.014912904,0.736946006,0.387735504,Berkeley,MULTIUNIT,72
532,"1749 Oxford St, Berkeley, CA",6001422400,9.170834519,36.5,432.6027369,30,2695,2,1,680,2,37.87597,-122.26622,0.295772596,0.428124619,0.339268566,Berkeley,MULTIUNIT,70
533,"1810 Euclid Ave, Berkeley, CA",6001422500,9.125129571,45.2,311.5803925,28,3195,2,1,510,4,37.8758,-122.2606,0.021126614,0.688479068,0.305714532,Berkeley,MULTIUNIT,72
534,"2531 Ridge Rd 1, Berkeley, CA 94709",6001422500,9.125129571,45.2,311.5803925,23,3600,2,1,600,1,37.87646,-122.25908,0.150371782,0.780441976,0.216237108,Berkeley,APARTMENT,77
535,"2027 Delaware St UNIT 5, Berkeley, CA 94709",6001422400,9.170834519,36.5,432.6027369,35,1900,1,1,378,1,37.874916,-122.26982,0.219965334,0.292665741,0.341132679,Berkeley,APARTMENT,65
536,"1569 Spruce St 8, Berkeley, CA 94709",6001421600,8.997829238,9.1,158.2547359,28,2799,1,1,652,1,37.87908,-122.26552,0.040389115,0.689100439,0.225557673,Berkeley,APARTMENT,72
537,"1315 Martin Luther King Jr Way APT 10, Berkeley, CA 94709",6001421700,9.073840161,24.2,188.8821877,28,1810,0,1,350,1,37.88258,-122.27389,0.211887511,1.015320214,0.056544761,Berkeley,APARTMENT,72
538,"1631 Bonita Ave, Berkeley, CA 94709",6001422400,9.170834519,36.5,432.6027369,30,6900,4,5,1600,1,37.876904,-122.27209,0.042874599,0.778577863,0.242956061,Berkeley,SINGLE_FAMILY,70
539,"2576 Virginia St 2576, Berkeley, CA 94709",6001422500,9.125129571,45.2,311.5803925,27,3800,2,2,993,1,37.8777,-122.25934,0.113089522,0.946969404,0.338647195,Berkeley,APARTMENT,73
540,"1815 Spruce St APT 101, Berkeley, CA 94709",6001422500,9.125129571,45.2,311.5803925,28,4400,2,2,1200,1,37.875282,-122.26512,0.3106855,0.475970186,0.475348815,Berkeley,APARTMENT,72
541,"1810 Bonita Ave, Berkeley, CA",6001422400,9.170834519,36.5,432.6027369,32,3295,2,1,725,2,37.87385,-122.27247,0.225557673,0.580360514,0.215615737,Berkeley,MULTIUNIT,68
542,"2516 Ridge Rd 4, Berkeley, CA 94709",6001422500,9.125129571,45.2,311.5803925,26,3675,2,1,600,1,37.87587,-122.25967,0.101904844,0.73943149,0.232392754,Berkeley,APARTMENT,74
543,"1541B Oxford St, Berkeley, CA 94709",6001421700,9.073840161,24.2,188.8821877,29,2350,1,1,600,1,37.885277,-122.26761,0.166527428,1.225343612,0.459193169,Berkeley,APARTMENT,71
544,"1900 Berryman St, Berkeley, CA 94709",6001421700,9.073840161,24.2,188.8821877,30,3950,2,1,850,1,37.88313,-122.27401,0.270917756,0.851899641,0.119303232,Berkeley,APARTMENT,70
545,"1634 Milvia St, Berkeley, CA",6001422400,9.170834519,36.5,432.6027369,31,3750,3,1,900,3,37.876972,-122.27164,0.062758471,0.716440763,0.182683074,Berkeley,MULTIUNIT,69
546,"1618 Milvia St APT 3, Berkeley, CA 94709",6001422400,9.170834519,36.5,432.6027369,30,3995,3,2,762,1,37.8774,-122.271675,0.144779443,0.7456452,0.153478637,Berkeley,APARTMENT,70
547,"1925 Delaware St 3D, Berkeley, CA 94709",6001422400,9.170834519,36.5,432.6027369,30,3195,2,1,768,1,37.87462,-122.27218,0.000621371,0.60272987,0.240470577,Berkeley,APARTMENT,70
548,"1624 Milvia St APT 2, Berkeley, CA 94709",6001422400,9.170834519,36.5,432.6027369,31,3200,2,1,850,1,37.877087,-122.27164,0.100662102,0.724518586,0.175226622,Berkeley,APARTMENT,69
549,"2575 Le Conte Ave, Berkeley, CA",6001422500,9.125129571,45.2,311.5803925,25,2895,2,1,590,2,37.877365,-122.25927,0.091962908,0.776092379,0.281481063,Berkeley,MULTIUNIT,75
550,"2455 Hilgard Ave APT 21, Berkeley, CA 94709",6001422500,9.125129571,45.2,311.5803925,26,2895,2,1,856,1,37.878765,-122.261795,0.145400814,0.836365366,0.518844785,Berkeley,APARTMENT,74
551,"1829 Highland Pl, Berkeley, CA",6001422500,9.125129571,45.2,311.5803925,23,2000,0,1,350,4,37.8759,-122.25549,0.336161711,0.905958918,0.032311292,Berkeley,MULTIUNIT,77
552,"1644 Oxford St, Berkeley, CA",6001422400,9.170834519,36.5,432.6027369,30,2500,1,1,600,3,37.877926,-122.26711,0.089477424,0.563583497,0.200702833,Berkeley,MULTIUNIT,70
553,"1765 Oxford St 2, Berkeley, CA 94709",6001422400,9.170834519,36.5,432.6027369,30,2299,1,1,514,1,37.87571,-122.266205,0.129245168,0.41010486,0.357288325,Berkeley,APARTMENT,70
554,"1738 Spruce St APT C, Berkeley, CA 94709",6001422400,9.170834519,36.5,432.6027369,29,2995,2,1,605,1,37.876163,-122.26577,0.239227835,0.613914548,0.404512521,Berkeley,APARTMENT,71
